parcelid,address,muni,lat,lon,tract
8000T03732000000,39224 SHAMROCK CT PITTSBURGH PA 15239,PLUM,40.483486994655159,-79.710163400242621,526301
8000T03639000000,109 NORWICH CT CARNEGIE PA 15106,ROBINSON,40.417733391965065,-80.106925482776262,459201
8000T03626000000,39249 SHAMROCK CT PITTSBURGH PA 15239,PLUM,40.484406316360776,-79.711167429859756,526301
2395P00005000000,0 STATE ROUTE 908 NATRONA HEIGHTS PA 15065,HARRISON,40.666973391925353,-79.708307881010128,401100
2378G00071000000,6087 VALENCIA RD VALENCIA PA 16059,RICHLAND,40.672459105672111,-79.988133786545163,408001
2377S00018000000,533 MACLEOD DR GIBSONIA PA 15044,PINE,40.667420052705026,-80.002409050455356,409002
2377K00011000000,212 MACFADDEN DR GIBSONIA PA 15044,PINE,40.669427748993762,-80.007985349670051,409002
2377K00004000000,404 OAK RIDGE CT MARS PA 16046,PINE,40.670863721434152,-80.011396741402493,409002
2376P00016000000,102 ORCHARD DR GIBSONIA PA 15044,PINE,40.668743544530344,-80.026658293001901,409002
2376P00014000000,100 ORCHARD DR GIBSONIA PA 15044,PINE,40.668195660388513,-80.026775278721274,409002
2376M00020000000,8008 FALCON CT GIBSONIA PA 15044,PINE,40.671601083347070,-80.020153993584671,409002
2376M00006000000,9010 PEREGRINE DR GIBSONIA PA 15044,PINE,40.669700262710329,-80.016831472553321,409002
2376L00010012500,1125 BAY HILL DR GIBSONIA PA 15044,PINE,40.669668279841481,-80.024092123249503,409002
2376L00009012300,1123 BAY HILL DR GIBSONIA PA 15044,PINE,40.669645474872091,-80.023806791580000,409002
2376L00009000000,8004 FALCON CT GIBSONIA PA 15044,PINE,40.671083580798673,-80.020940853693517,409002
2376L00007011300,1113 BAY HILL DR GIBSONIA PA 15044,PINE,40.670296759736381,-80.023311706663534,409002
2376J00008000000,2128 WEST GROVE DR GIBSONIA PA 15044,PINE,40.669101924230880,-80.029577812038710,409002
2376H00004000000,8014 FALCON CT GIBSONIA PA 15044,PINE,40.672193889830069,-80.018914116594601,409002
2376H00002000000,8018 FALCON CT GIBSONIA PA 15044,PINE,40.672065948387534,-80.017791307143440,409002
2376G00054000000,128 PINEHURST LN GIBSONIA PA 15044,PINE,40.671783561164418,-80.022618523436520,409002
2376G00034000000,105 ISLEWORTH WAY GIBSONIA PA 15044,PINE,40.672378613695308,-80.023820459870421,409002
2376G00033000000,106 ISLEWORTH WAY GIBSONIA PA 15044,PINE,40.672180672110350,-80.023795373330813,409002
2376G00024000000,114 PINEHURST LN GIBSONIA PA 15044,PINE,40.671798749934133,-80.024424899029668,409002
2376E00025000000,4012 WEST GROVE WAY GIBSONIA PA 15044,PINE,40.673069748131169,-80.032728523736324,409002
2376E00024000000,4010 WEST GROVE WAY GIBSONIA PA 15044,PINE,40.672751270144595,-80.032649844298518,409002
2375M00007000000,2043 WEST GROVE DR GIBSONIA PA 15044,PINE,40.670649960674794,-80.033903221051503,409002
2374P00028000000,311 CONNEMARA CT MARS PA 16046,PINE,40.668438470873831,-80.058871992952419,409002
2374P00022000000,108 MINNOCK DR MARS PA 16046,PINE,40.668907322856121,-80.060467135506954,409002
2374P00020000000,110 MINNOCK DR MARS PA 16046,PINE,40.668636784258609,-80.060119848720035,409002
2374P00014000000,116 MINNOCK DR MARS PA 16046,PINE,40.667931471377400,-80.059309982296725,409002
2374N00004000000,328 MACINTOSH DR MARS PA 16046,PINE,40.667008199621570,-80.063996395999695,409002
2374F00066000000,1001 PLEASANT RIDGE DR MARS PA 16046,PINE,40.671651789873394,-80.060032735981252,409002
2372R00308000000,601 CHILLIWACK LN MARS PA 16046,MARSHALL,40.666758955410138,-80.090386893338689,411002
2372R00249000000,272 VENANGO TRL MARS PA 16046,MARSHALL,40.668586145461383,-80.090164886320295,411002
2372R00145000000,245 VENANGO TRL MARS PA 16046,MARSHALL,40.667915429767369,-80.090695234867425,411002
2372M00590000000,146 SENECA PL MARS PA 16046,MARSHALL,40.670311449063632,-80.084177559268923,411002
2372M00578000000,138 SENECA PL MARS PA 16046,MARSHALL,40.670540297464647,-80.084561915254525,411002
2372M00324000000,502 TUSCARORA RD MARS PA 16046,MARSHALL,40.670336938867898,-80.086123788442990,411002
2372M00094000000,513 TUSCARORA RD MARS PA 16046,MARSHALL,40.670440437905796,-80.085095305185803,411002
2372M00092000000,515 TUSCARORA RD MARS PA 16046,MARSHALL,40.670387950544587,-80.085004259167292,411002
2372M00074000000,174 SENECA PL MARS PA 16046,MARSHALL,40.670045364343586,-80.086376918238102,411002
2372M00072000000,172 SENECA PL MARS PA 16046,MARSHALL,40.670045037662760,-80.086154536423223,411002
2372M00060000000,168 SENECA PL MARS PA 16046,MARSHALL,40.669803931426522,-80.085575600150378,411002
2372M00039000000,177 SENECA PL MARS PA 16046,MARSHALL,40.669623029963233,-80.086676936199524,411002
2372M00031000000,161 SENECA PL MARS PA 16046,MARSHALL,40.669060661086306,-80.084805576517979,411002
2372L00163000000,204 VENANGO TRL MARS PA 16046,MARSHALL,40.669547385284559,-80.088901770110596,411002
2372L00005000000,109 SENECA PL MARS PA 16046,MARSHALL,40.671506445601658,-80.087464278286291,411002
2372K00132000000,1013 MOHAWK LN MARS PA 16046,MARSHALL,40.670792349343451,-80.092249130088902,411002
2372K00130000000,1011 MOHAWK LN MARS PA 16046,MARSHALL,40.670789938413400,-80.092351910315529,411002
2372K00124000000,1005 MOHAWK LN MARS PA 16046,MARSHALL,40.670782233795912,-80.092638363897905,411002
2372K00122000000,1003 MOHAWK LN MARS PA 16046,MARSHALL,40.670779893481487,-80.092714021329627,411002
2372K00118000000,2018 HEMLOCK LN MARS PA 16046,MARSHALL,40.671058712743857,-80.092057697748302,411002
2372K00108000000,2008 HEMLOCK LN MARS PA 16046,MARSHALL,40.671047690933136,-80.092529958913460,411002
2372K00106000000,2006 HEMLOCK LN MARS PA 16046,MARSHALL,40.671044813084769,-80.092632025912806,411002
2372K00104000000,2004 HEMLOCK LN MARS PA 16046,MARSHALL,40.671042958188117,-80.092710564009607,411002
2372F00315000000,3015 MAHICAN CIR MARS PA 16046,MARSHALL,40.672033689049165,-80.092463470601103,411002
2372F00298000000,3022 MAHICAN CIR MARS PA 16046,MARSHALL,40.671661167845372,-80.092037505049078,411002
2370R00029000000,410 LEGENDARY LN MARS PA 16046,MARSHALL,40.667327386608584,-80.124025059940720,411001
2370R00018000000,155 SEWICKLEY FARM CIR MARS PA 16046,MARSHALL,40.668006995902175,-80.122701556922465,411001
2370L00014000000,401 WORTHINGTON DR MARS PA 16046,MARSHALL,40.671241497889170,-80.120511596236256,411001
2370K00016000000,200 THORNBERRY CT MARS PA 16046,MARSHALL,40.669878371656011,-80.126263673880345,411001
2370K00012000000,207 THORNBERRY CT MARS PA 16046,MARSHALL,40.670276170730247,-80.125251963094030,411001
2370G00021000000,110 WESTMINSTER DR MARS PA 16046,MARSHALL,40.672611274503502,-80.122957453844478,411001
2370G00004000000,125 WESTMINSTER DR MARS PA 16046,MARSHALL,40.673507940826703,-80.121754192974166,411001
2370F00016000000,4022 CLARIDON DR MARS PA 16046,MARSHALL,40.673447768493453,-80.127591599520073,411001
2276S00024000000,126 BUNOLA RIVER RD MONONGAHELA PA 15063,FORWARD,40.202191167382118,-79.916956503112971,495000
2276M00311000000,0 BUNOLA RIVER RD MONONGAHELA PA 15063,FORWARD,40.202139560615421,-79.917055970918383,495000
2275R00210000000,1861 MALERIE LN MONONGAHELA PA 15063,FORWARD,40.201689288306170,-79.904948151891276,495000
2275L00244000000,1861 MALERIE LN MONONGAHELA PA 15063,FORWARD,40.202443635423599,-79.905012236078377,495000
2272K00285000000,3417 RAINBOW RUN RD MONONGAHELA PA 15063,FORWARD,40.204405611789205,-79.860028485712036,495000
2191L00015000000,280 ESTATES DR GIBSONIA PA 15044,RICHLAND,40.661232319553584,-79.924224363571440,408001
2191K00084000000,281 ESTATES DR GIBSONIA PA 15044,RICHLAND,40.661413125040546,-79.925177292223751,408001
2191F00002000000,405 MINGLEWOOD DR GIBSONIA PA 15044,RICHLAND,40.662105585520131,-79.928460296152821,408001
2191B00012000000,744 PACKSADDLE TRL GIBSONIA PA 15044,RICHLAND,40.666101655324937,-79.924602750836925,408001
2190R00027000000,2045 LYNN LN GIBSONIA PA 15044,RICHLAND,40.659537793890955,-79.940799029874512,408001
2190R00009000000,200 CHAD CT GIBSONIA PA 15044,RICHLAND,40.658770497162322,-79.940539693056692,408001
2190P00021000000,832 FAIRWINDS DR GIBSONIA PA 15044,RICHLAND,40.659331172771203,-79.943197287716288,408001
2190P00012000000,817 FAIRWINDS DR GIBSONIA PA 15044,RICHLAND,40.658587633811685,-79.941706481126218,408001
2190M00156000000,135 BELLEFIELD CT GIBSONIA PA 15044,RICHLAND,40.660731633230590,-79.936222555535466,408001
2190K00042000000,2004 LYNN LN GIBSONIA PA 15044,RICHLAND,40.660906855291813,-79.944251954412579,408001
2190J00209000000,3845 KIM LN GIBSONIA PA 15044,RICHLAND,40.661033395397396,-79.949534827922179,408001
2189M00162000000,3816 KIM LN GIBSONIA PA 15044,RICHLAND,40.660031000965084,-79.953398853571841,408001
2188J00002013900,6031 LIBERTY BLVD GIBSONIA PA 15044,RICHLAND,40.657764744812638,-79.978079560154015,408001
2188J00002013800,6033 LIBERTY BLVD GIBSONIA PA 15044,RICHLAND,40.657665291904152,-79.978089629897639,408001
2188J00002013300,305 AMERICAN WAY GIBSONIA PA 15044,RICHLAND,40.657316828351966,-79.979085645932855,408001
2188J00002012900,313 AMERICAN WAY GIBSONIA PA 15044,RICHLAND,40.657087208610115,-79.980054584601973,408001
2188J00002012300,151 FORT PITT BLVD PITTSBURGH PA 15222,RICHLAND,40.657736900293756,-79.979256565469541,408001
2188J00002011800,6022 LIBERTY BLVD GIBSONIA PA 15044,RICHLAND,40.658200923029732,-79.978780569973679,408001
2186P00235000000,7406 CHESTNUT WAY GIBSONIA PA 15044,PINE,40.659023247293270,-80.008546282902671,409002
2186P00204000000,4104 SPRUCE RD GIBSONIA PA 15044,PINE,40.659200338013910,-80.010110778179907,409002
2186P00106000000,6200 ELM RD GIBSONIA PA 15044,PINE,40.658752181226802,-80.010646605496149,409002
2186P00104000000,6202 ELM RD GIBSONIA PA 15044,PINE,40.659052511183376,-80.010642630388503,409002
2186N00007000000,3020 SPRUCE RD GIBSONIA PA 15044,PINE,40.659170129007428,-80.012371545834696,409002
2186L00107000000,4707 SPRUCE RD GIBSONIA PA 15044,PINE,40.661165107091108,-80.007665205140469,409002
2186K00229000000,4407 SPRUCE RD GIBSONIA PA 15044,PINE,40.660255075903677,-80.008668212008246,409002
2186K00215000000,4301 SPRUCE RD GIBSONIA PA 15044,PINE,40.659782578311599,-80.009266247717505,409002
2186K00211000000,4203 SPRUCE RD GIBSONIA PA 15044,PINE,40.659703874962823,-80.009541980187848,409002
2186K00207000000,4107 SPRUCE RD GIBSONIA PA 15044,PINE,40.659648401619663,-80.009823072475683,409002
2186K00201000000,4101 SPRUCE RD GIBSONIA PA 15044,PINE,40.659644709991746,-80.010199119097337,409002
2186K00090000000,2019 CHERRY RD GIBSONIA PA 15044,PINE,40.661325524148779,-80.010850046521000,409002
2186K00086000000,151 FORT PITT BLVD PITTSBURGH PA 15222,PINE,40.661722250402029,-80.010892404421313,409002
2186K00082000000,2011 CHERRY RD GIBSONIA PA 15044,PINE,40.661489223347914,-80.011406649277063,409002
2186K00042000000,3038 SPRUCE RD GIBSONIA PA 15044,PINE,40.660489749343704,-80.011462918565627,409002
2186K00015000000,3023 SPRUCE RD GIBSONIA PA 15044,PINE,40.659600845153285,-80.012056920459031,409002
2186A00029000000,7019 OAK PARK DR GIBSONIA PA 15044,PINE,40.666588189920276,-80.014064182445324,409002
2185J00002000000,1063 SOUTH LAKE DR GIBSONIA PA 15044,PINE,40.661641538411587,-80.029169166851005,409002
2185E00006000000,516 TREE LINE DR GIBSONIA PA 15044,PINE,40.663520036939119,-80.028991635172915,409002
2185E00004000000,512 TREE LINE DR GIBSONIA PA 15044,PINE,40.663967452005714,-80.029327059863434,409002
2185C00003000000,3010 EAST RIDGE DR GIBSONIA PA 15044,PINE,40.666122045656650,-80.020946302452586,409002
2185B00007000000,4108 FAIRWAY DR GIBSONIA PA 15044,PINE,40.666850902263910,-80.025466445916493,409002
2185B00002000000,4103 FAIRWAY DR GIBSONIA PA 15044,PINE,40.665182287393790,-80.025693412697606,409002
2185A00007000000,5010 WILLOW CREEK CT GIBSONIA PA 15044,PINE,40.666263793185806,-80.029778925071497,409002
2184P00015000000,204 GREENWOOD DR WEXFORD PA 15090,PINE,40.657400638456942,-80.044430067644583,409002
2183N00002000000,724 MULKERRIN CT MARS PA 16046,PINE,40.657082063914665,-80.063188771571077,409002
2183L00016000000,800 WHITETAIL CIR WEXFORD PA 15090,PINE,40.659681933400684,-80.056396476908560,409002
2183L00001000000,261 PINKERTON RD WEXFORD PA 15090,PINE,40.659554666619464,-80.055047870994983,409002
2183J00024000000,632 TULLAMORE TRL MARS PA 16046,PINE,40.660435718134167,-80.065027854464418,409002
2183J00013000000,706 MULKERRIN CT MARS PA 16046,PINE,40.659667183003918,-80.063022883615602,409002
2183J00011000000,704 MULKERRIN CT MARS PA 16046,PINE,40.659908424739115,-80.063184709689580,409002
2183J00009000000,702 MULKERRIN CT MARS PA 16046,PINE,40.660117634455347,-80.063420293231346,409002
2183J00005000000,635 TULLAMORE TRL MARS PA 16046,PINE,40.659509078164277,-80.064105685351990,409002
2183E00002000000,616 TULLAMORE TRL MARS PA 16046,PINE,40.662131544117578,-80.062787960780767,409002
2183B00019000000,141 MINNOCK DR MARS PA 16046,PINE,40.665141373902344,-80.062279262059391,409002
2182N00468000000,910 PENTICON LN WARRENDALE PA 15086,MARSHALL,40.659279695822839,-80.078750399715418,411002
2181R00050013400,134 WATSON DR WARRENDALE PA 15086,MARSHALL,40.658616998576761,-80.088365075671049,411002
2181R00010012800,128 WATSON DR WARRENDALE PA 15086,MARSHALL,40.658523570074628,-80.088122190112543,411002
2181M00556000000,804 ONEIDA CIR MARS PA 16046,MARSHALL,40.660842412205334,-80.085783973310640,411002
2181H00372000000,641 CHILLIWACK LN MARS PA 16046,MARSHALL,40.661986629744334,-80.086666583055077,411002
2180P00626000000,626 EDISON DR WEXFORD PA 15090,MARSHALL,40.657288320442987,-80.108538620118381,411001
2179L00001000000,530 KNOB RD WEXFORD PA 15090,MARSHALL,40.662520274478986,-80.122363272552690,411001
2179C00010000000,829 FOXRIDGE CT MARS PA 16046,MARSHALL,40.665117883308902,-80.123062637184219,411001
2086D00276000000,5718 ELLA HOLLOW RD ELIZABETH PA 15037,FORWARD,40.217453725605395,-79.868095805948968,495000
2083F00238000000,0 W NEWTON RD ELIZABETH PA 15037,ELIZABETH TWP,40.214942942978162,-79.825294649004775,496102
2021P00084000000,116 EVERGREEN DR NATRONA HEIGHTS PA 15065,HARRISON,40.649568829005382,-79.710769024758918,401100
2020J00130000000,3208 DONNELLVILLE RD NATRONA HEIGHTS PA 15065,FAWN,40.649982727099939,-79.730348553370945,406000
2011E00085113300,1133 LINKS WAY GIBSONIA PA 15044,WEST DEER,40.650938276558740,-79.880965849270964,407001
2011E00085112400,1124 LINKS WAY GIBSONIA PA 15044,WEST DEER,40.651722655683614,-79.880641194258388,407001
2008P00097000000,2820 MCMORRAN RD GIBSONIA PA 15044,RICHLAND,40.649757724039638,-79.926166195289269,408001
2008N00075000000,3623 PATRICIA LN GIBSONIA PA 15044,RICHLAND,40.648149541837007,-79.930820790907006,408001
2006S00004000000,185 WEDGEWOOD DR GIBSONIA PA 15044,RICHLAND,40.647924411259105,-79.953461026210874,408001
2005B00171000000,213 HAYMONT DR GIBSONIA PA 15044,RICHLAND,40.655160475085481,-79.976702537197411,408001
2004M00004022000,403 FREEDOM DR GIBSONIA PA 15044,RICHLAND,40.655161757431031,-79.979147276152474,408001
2003N00007000000,408 LANGDON DR GIBSONIA PA 15044,PINE,40.648622440393062,-80.016440508854870,409002
2003N00005000000,122 SUMMER PL GIBSONIA PA 15044,PINE,40.649507206118393,-80.015775842726811,409002
2003E00017000000,105 SUMMER PL GIBSONIA PA 15044,PINE,40.652594461598937,-80.013102811390240,409002
2002S00012000000,404 LANGDON DR GIBSONIA PA 15044,PINE,40.648727687673102,-80.017807103379852,409002
2002R00078000000,151 FORT PITT BLVD PITTSBURGH PA 15222,PINE,40.647727759639622,-80.021088031042041,409002
2002R00070000000,301 PINYON DR GIBSONIA PA 15044,PINE,40.649210488393763,-80.020930650651010,409002
2002R00054000000,204 PINE CREST CT GIBSONIA PA 15044,PINE,40.647434484379367,-80.022143066761373,409002
2002D00046000000,209 PIN OAK DR WEXFORD PA 15090,PINE,40.654396059754063,-80.032020544754701,409002
2001N00014000000,112 ENGLISH FARM DR WEXFORD PA 15090,PINE,40.648530874731613,-80.046673648690145,409001
2001N00007000000,309 PINE WOOD DR WEXFORD PA 15090,PINE,40.647247466406562,-80.048561306934658,409001
2001F00003000000,220 GREENWOOD DR WEXFORD PA 15090,PINE,40.653385451039938,-80.045265283567801,409002
2001D00022000000,106 BIRCH DR WEXFORD PA 15090,PINE,40.656132946218868,-80.036232970736876,409002
2001B00017000000,208 GREENWOOD DR WEXFORD PA 15090,PINE,40.656339824678668,-80.044379474533159,409002
2001B00012000000,207 GREENWOOD DR WEXFORD PA 15090,PINE,40.656718839660968,-80.045469976853155,409002
2001A00033000000,125 RABOLD DR WEXFORD PA 15090,PINE,40.656649324613319,-80.046846749030308,409002
2001A00017000000,109 RABOLD DR WEXFORD PA 15090,PINE,40.654633965634325,-80.047213858929453,409002
2000S00003000000,345 HAEFNER DR WEXFORD PA 15090,PINE,40.648328843211054,-80.052939511021847,409001
2000M00007000000,338 TRINITY WAY WEXFORD PA 15090,PINE,40.651061187783419,-80.053699359754660,409001
2000M00002000000,0 TRINITY WAY WEXFORD PA 15090,PINE,40.650987716264495,-80.052825659609326,409001
2000C00005000000,304 SCARLET CIR WEXFORD PA 15090,PINE,40.654678755750304,-80.056602955015464,409002
1999R00028000000,468 FAIRMONT DR WEXFORD PA 15090,MARSHALL,40.649569020296184,-80.073107138428853,411002
1999L00121000000,459 FAIRMONT DR WEXFORD PA 15090,MARSHALL,40.650222756483693,-80.073446375470624,411002
1999L00102000000,457 FAIRMONT DR WEXFORD PA 15090,MARSHALL,40.650218824199719,-80.073587317678260,411002
1999K00038000000,421 FAIRMONT DR WEXFORD PA 15090,MARSHALL,40.650118419623716,-80.075710803462599,411002
1999K00022000000,437 FAIRMONT DR WEXFORD PA 15090,MARSHALL,40.650181045067640,-80.074755008485894,411002
1999G00016000000,169 WARRENDALE BAKERSTOWN RD MARS PA 16046,MARSHALL,40.654113629534486,-80.071531045154003,411002
1998R00016000000,721 BRIDLE PATH DR WEXFORD PA 15090,MARSHALL,40.648919137850356,-80.090444233666219,411002
1998R00013000000,740 BRIDLE PATH DR WEXFORD PA 15090,MARSHALL,40.648390882403504,-80.091232357768405,411002
1998R00005000000,920 HARVEST RIDGE DR WEXFORD PA 15090,MARSHALL,40.647508584971717,-80.089234892328619,411002
1997S00022000000,349 PROVIDENCE DR WEXFORD PA 15090,MARSHALL,40.649252913407963,-80.103443022841205,411001
1997N00001000000,329 FREY DR WEXFORD PA 15090,MARSHALL,40.647706267364107,-80.114442484700589,411001
1997K00013000000,814 MULBERRY CT WEXFORD PA 15090,MARSHALL,40.651523430886748,-80.110425718186292,411001
1997F00015000000,623 CIDERBERRY DR WEXFORD PA 15090,MARSHALL,40.654050906140959,-80.109398139797847,411001
1997F00014000000,618 CIDERBERRY DR WEXFORD PA 15090,MARSHALL,40.653940763861897,-80.110298190745425,411001
1996L00005000000,105 ARCHBERRY DR WEXFORD PA 15090,MARSHALL,40.651235671029312,-80.120683823568285,411001
1996G00010000000,104 ARCHBERRY DR WEXFORD PA 15090,MARSHALL,40.652397656680783,-80.120978991364396,411001
1996A00040000000,715 COPPER CREEK LN WEXFORD PA 15090,MARSHALL,40.653898596068679,-80.130836680333076,411001
1996A00030000000,711 COPPER CREEK LN WEXFORD PA 15090,MARSHALL,40.655387748996922,-80.132024014739244,411001
1995G00016000000,3015 ALLMAN PL BADEN PA 15005,MARSHALL,40.652215338364094,-80.140489095617738,411001
1995G00014000000,3017 ALLMAN PL BADEN PA 15005,MARSHALL,40.652153056129769,-80.140937645206193,411001
1995G00006000000,3018 ALLMAN PL BADEN PA 15005,MARSHALL,40.652773547623404,-80.139864502493211,411001
1995F00004000000,3026 ALLMAN PL BADEN PA 15005,MARSHALL,40.652772522946350,-80.141625400662718,411001
1995C00020000000,2011 MALLARD LN BADEN PA 15005,MARSHALL,40.655431712167967,-80.139362743439335,411001
1906H00135000000,111 LAKE DR ELIZABETH PA 15037,ELIZABETH TWP,40.226256531739644,-79.851321668889852,496102
1904R00241000000,3308 LONG HOLLOW RD ELIZABETH PA 15037,ELIZABETH TWP,40.219985449584449,-79.824963330548385,496102
1904H00314000000,3101 LONG HOLLOW RD ELIZABETH PA 15037,ELIZABETH TWP,40.224972157686175,-79.819589993996047,496102
1847N00051000000,222 CHERRY BARK DR NATRONA HEIGHTS PA 15065,HARRISON,40.638008358663924,-79.698888537646155,401100
1847N00037000000,236 CHERRY BARK DR NATRONA HEIGHTS PA 15065,HARRISON,40.638707167283080,-79.698284616821411,401100
1846H00265000000,0 JACQUELINE DR NATRONA HEIGHTS PA 15065,HARRISON,40.643680981645176,-79.702973024185511,401100
1845M00128000000,1513 SAXONBURG RD NATRONA HEIGHTS PA 15065,HARRISON,40.642147115214591,-79.717189223637263,401100
1832N00115000000,123 FIELD BROOK LN GIBSONIA PA 15044,RICHLAND,40.639598785082292,-79.949917133650402,408001
1832N00105000000,202 FIELD BROOK CT GIBSONIA PA 15044,RICHLAND,40.637966363948230,-79.949902361901934,408001
1832C00085000000,4149 DICKEY RD GIBSONIA PA 15044,RICHLAND,40.645376293401000,-79.938677570297017,408001
1832A00019000000,313 TIFFANY CT GIBSONIA PA 15044,RICHLAND,40.647273794595385,-79.946047778502702,408001
1832A00015000000,321 TIFFANY CT GIBSONIA PA 15044,RICHLAND,40.646590107570425,-79.946328814313574,408001
1831M00385000000,5716 SUMMIT ST GIBSONIA PA 15044,RICHLAND,40.642101556696105,-79.953088057044198,408001
1831F00321000000,5733 PHILLIPS RD GIBSONIA PA 15044,RICHLAND,40.642997967828215,-79.961483384933345,408001
1831B00074000000,5765 FRANKLIN DR GIBSONIA PA 15044,RICHLAND,40.645316351255161,-79.959490142556675,408001
1828R00011000000,127 SNOWBERRY LN GIBSONIA PA 15044,PINE,40.638668296639032,-80.006161827787309,409001
1827M00023000000,514 DOUGLAS DR WEXFORD PA 15090,PINE,40.641019605875677,-80.021060043066782,409001
1827G00002000000,271 LOGAN RD GIBSONIA PA 15044,PINE,40.644837909885297,-80.024282581253360,409002
1826S00001000000,229 WHETHERBURN DR WEXFORD PA 15090,PINE,40.637577155517654,-80.034842841186929,409001
1826M00003000000,302 WYNFIELD CT WEXFORD PA 15090,PINE,40.641055468457004,-80.035622314425112,409001
1826H00024000000,506 RIDGE CT WEXFORD PA 15090,PINE,40.642439388677744,-80.033835544888149,409001
1826F00104000000,504 CAMBRIDGE CT WEXFORD PA 15090,PINE,40.644745026364618,-80.044974704039305,409001
1825P00050000000,130 BROOKFIELD ESTATES DR WEXFORD PA 15090,PINE,40.637747401271916,-80.060100420840271,409001
1825L00051000000,102 MILLER DR WEXFORD PA 15090,PINE,40.640964891464371,-80.056565766798101,409001
1825K00037000000,456 CLOVERDALE DR WEXFORD PA 15090,PINE,40.641457063791741,-80.061461460612634,409001
1825K00015000000,522 CLOVERDALE CT WEXFORD PA 15090,PINE,40.640991377161413,-80.059659091827498,409001
1825D00029000000,95 TWIN OAK DR WEXFORD PA 15090,PINE,40.645356290726447,-80.053533393460370,409001
1824S00355000000,512 SPRUCE LN BRADFORD WOODS PA 15015,BRADFORD WOODS,40.639008427178815,-80.071019833728030,410000
1824R00124000000,337 CEDAR RD BRADFORD WOODS PA 15015,BRADFORD WOODS,40.638515036800207,-80.070212683775154,410000
1824P00296000000,172 BRADFORD RD BRADFORD WOODS PA 15015,BRADFORD WOODS,40.637885352478747,-80.077684313938818,410000
1824J00280000000,20 LAUREL RD BRADFORD WOODS PA 15015,BRADFORD WOODS,40.641900063610962,-80.081791559890576,410000
1824B00009000000,245 SEASONS DR WEXFORD PA 15090,MARSHALL,40.646711696327188,-80.078011803278812,411002
1823R00025000000,65 SELDOM SEEN RD BRADFORD WOODS PA 15015,BRADFORD WOODS,40.637614084541923,-80.089146694310330,410000
1823M00324000000,306 CRYSTAL SPRINGS RD BRADFORD WOODS PA 15015,BRADFORD WOODS,40.641586409487402,-80.084863865273434,410000
1823K00184000000,47 BLUEBERRY LN WEXFORD PA 15090,MARSHALL,40.640351107482232,-80.092746910882951,411002
1822L00014000000,404 TYBURN DR WEXFORD PA 15090,MARSHALL,40.642313956143461,-80.107320254427520,411001
1822K00016000000,213 ROLLING HILLS DR WEXFORD PA 15090,MARSHALL,40.641252093362432,-80.111378443684629,411001
1822K00013000000,207 ROLLING HILLS DR WEXFORD PA 15090,MARSHALL,40.641556842090090,-80.110299708811084,411001
1822F00008000000,104 GREENBRIAR DR WEXFORD PA 15090,MARSHALL,40.643739912073109,-80.110142593221511,411001
1822C00020000000,447 TYBURN DR WEXFORD PA 15090,MARSHALL,40.646388841325233,-80.106266775186299,411001
1822B00003000000,503 HICKORY CT WEXFORD PA 15090,MARSHALL,40.645816138351265,-80.112151791027387,411001
1822A00005000000,513 HICKORY CT WEXFORD PA 15090,MARSHALL,40.645075631024909,-80.115013820185567,411001
1821M00002000000,123 SEARIGHT DR BADEN PA 15005,MARSHALL,40.641864028916935,-80.118508498468728,411001
1820D00004000000,116 REGISTRY LN BADEN PA 15005,MARSHALL,40.645266565340485,-80.136125712208610,411001
1679P00256000000,2306 HIGH ST NATRONA HEIGHTS PA 15065,HARRISON,40.630471647973287,-79.709961849065436,401100
1679J00276000000,806 JEFFERSON AVE NATRONA HEIGHTS PA 15065,HARRISON,40.632646221942331,-79.712611907672482,401100
1679G00051000000,2512 ROOSEVELT ST NATRONA HEIGHTS PA 15065,HARRISON,40.633497797905520,-79.706979778841486,401100
1678R00365000000,1016 LILAC ST NATRONA HEIGHTS PA 15065,HARRISON,40.629015665755524,-79.720601617403261,401100
1678L00215000000,1529 NEELY ST NATRONA HEIGHTS PA 15065,HARRISON,40.631144714630288,-79.721289739602526,401100
1669N00249000000,177 BRYSON RD GIBSONIA PA 15044,WEST DEER,40.629921073961249,-79.881660349558558,407002
1667J00171000000,619 WHISPERING PINES DR GIBSONIA PA 15044,WEST DEER,40.631461761834892,-79.913827276858640,407001
1666C00005000000,513 MADISON DR GIBSONIA PA 15044,RICHLAND,40.636429574806414,-79.923345255673368,408002
1666B00074000000,4304 GRANDVIEW DR GIBSONIA PA 15044,RICHLAND,40.637397250334246,-79.926588015887575,408001
1665M00218000000,4115 GIBSONIA RD GIBSONIA PA 15044,RICHLAND,40.631617911746062,-79.934679967582838,408002
1664F00312000000,5513 BAUER DR GIBSONIA PA 15044,RICHLAND,40.632533738050149,-79.961754336210333,408001
1663E00048000000,5535 CLEARVIEW RD GIBSONIA PA 15044,RICHLAND,40.634319151023313,-79.979718526575581,408001
1661J00015000000,3010 WHITE PINE DR GIBSONIA PA 15044,PINE,40.631420474205100,-80.015048615629297,409001
1661F00003000000,417 AVONLEA CT GIBSONIA PA 15044,PINE,40.634333421090503,-80.008345487308333,409001
1661E00015000000,3047 WHITE PINE DR GIBSONIA PA 15044,PINE,40.634438737442018,-80.012755691609968,409001
1661B00022000000,1021 TIERRA VISTA DR GIBSONIA PA 15044,PINE,40.635667741645271,-80.011312017858643,409001
1660P00001000000,125 LYNDHURST CIR WEXFORD PA 15090,PINE,40.630119717583575,-80.028093809104377,409001
1660E00007000000,109 LYNDHURST CIR WEXFORD PA 15090,PINE,40.633212780077614,-80.028742432917227,409001
1659N00250000000,137 HAMILTON DR WEXFORD PA 15090,PINE,40.629623055246185,-80.045872624583367,409001
1659N00214000000,810 VILLAGE CLUB DR WEXFORD PA 15090,PINE,40.628780013631861,-80.046944139208975,409001
1659N00056000000,908 FAIRGATE DR WEXFORD PA 15090,PINE,40.629294761604996,-80.048310379947139,409001
1659K00019000000,246 EDDIE LEWIS DR WEXFORD PA 15090,PINE,40.632081116586768,-80.045606500478939,409001
1659J00052000000,765 VILLAGE CLUB DR WEXFORD PA 15090,PINE,40.632531559569287,-80.048342349133648,409001
1659J00035000000,781 VILLAGE CLUB DR WEXFORD PA 15090,PINE,40.630826143474131,-80.048142151530485,409001
1658S00456000000,608 BROADMORE LN WEXFORD PA 15090,PINE,40.630005044191719,-80.050411106158265,409001
1658S00309000000,702 BROADMORE LN WEXFORD PA 15090,PINE,40.629889279053970,-80.050201220042155,409001
1658G00112000000,506 GARDEN WAY WEXFORD PA 15090,PINE,40.633641048954331,-80.054511966698115,409001
1658G00104000000,3007 VILLAGE RUN RD WEXFORD PA 15090,PINE,40.633505261777792,-80.054845122206942,409001
1658G00094000000,511 GARDEN WAY WEXFORD PA 15090,PINE,40.633888286692496,-80.054121436971940,409001
1658G00091000000,505 GARDEN WAY WEXFORD PA 15090,PINE,40.634001311505727,-80.054464952397595,409001
1658D00054000000,101 GEORGETOWNE CT WEXFORD PA 15090,PINE,40.635966398736869,-80.053882719122981,409001
1658D00046000000,503 GEORGETOWNE CT WEXFORD PA 15090,PINE,40.636114790210016,-80.052411289271873,409001
1658D00028000000,202 GEORGETOWNE CT WEXFORD PA 15090,PINE,40.635743130095641,-80.053386427759818,409001
1658D00025000000,208 GEORGETOWNE CT WEXFORD PA 15090,PINE,40.635811954556672,-80.053062710755128,409001
1658D00023000000,402 GEORGETOWNE CT WEXFORD PA 15090,PINE,40.635871700627838,-80.052761005537832,409001
1658B00056000000,152 BROOKFIELD ESTATES DR WEXFORD PA 15090,PINE,40.637034560881403,-80.058429737938170,409001
1658B00052000000,156 BROOKFIELD ESTATES DR WEXFORD PA 15090,PINE,40.636830788274516,-80.058183516743171,409001
1658B00034000000,141 BROOKFIELD ESTATES DR WEXFORD PA 15090,PINE,40.637071816419137,-80.059244827874167,409001
1658B00032000000,139 BROOKFIELD ESTATES DR WEXFORD PA 15090,PINE,40.637191378551208,-80.059348642133145,409001
1658B00024000000,131 BROOKFIELD ESTATES DR WEXFORD PA 15090,PINE,40.637301026254768,-80.060096261981442,409001
1658B00018000000,224 SWINDERMAN RD WEXFORD PA 15090,PINE,40.636486185979926,-80.060382703129136,409001
1658B00016000000,226 SWINDERMAN RD WEXFORD PA 15090,PINE,40.636371644278974,-80.060276014470730,409001
1657J00277000000,453 BELLAIRE RD BRADFORD WOODS PA 15015,BRADFORD WOODS,40.631762507798676,-80.080672381945874,410000
1657C00036000000,915 DALE AVE BRADFORD WOODS PA 15015,BRADFORD WOODS,40.635417784641461,-80.071469314651750,410000
1656D00097000000,233 BRADFORD RD BRADFORD WOODS PA 15015,BRADFORD WOODS,40.636035747361476,-80.085715130903992,410000
1520B00130000000,205 VAN DOREN DR NATRONA HEIGHTS PA 15065,HARRISON,40.627340949376531,-79.709942233537433,401100
1520A00069000000,319 MCWILLIAMS DR NATRONA HEIGHTS PA 15065,HARRISON,40.627588002581376,-79.714126582395863,401100
1519F00155000000,1106 LIBERTY AVE NATRONA HEIGHTS PA 15065,HARRISON,40.623243145472401,-79.727983405516611,401300
1519F00153000000,0 LIBERTY AVE NATRONA HEIGHTS PA 15065,HARRISON,40.623397555165560,-79.728059607159494,401300
1518R00005000000,1218 ARIZONA AVE NATRONA HEIGHTS PA 15065,HARRISON,40.618574065862035,-79.738751248213987,401300
1518L00038000000,1424 5TH ST NATRONA HEIGHTS PA 15065,HARRISON,40.622202459315389,-79.737598325054634,401300
1518H00101000000,1515 4TH ST NATRONA HEIGHTS PA 15065,HARRISON,40.624056629273511,-79.735369094235637,401300
1507N00174000000,1321 WOODHILL DR GIBSONIA PA 15044,RICHLAND,40.618830886576234,-79.932038833422368,408002
1507G00301000000,501 JENNY DR GIBSONIA PA 15044,RICHLAND,40.625244639359309,-79.924410116532314,408002
1507F00119000000,1121 WOODHILL DR GIBSONIA PA 15044,RICHLAND,40.624566831013702,-79.927251511909063,408002
1507F00085000000,1137 WOODHILL DR GIBSONIA PA 15044,RICHLAND,40.623275395021366,-79.926529742081158,408002
1507C00161000000,505 JENNY DR GIBSONIA PA 15044,RICHLAND,40.625566879920562,-79.924601032570351,408002
1506S00006000000,1001 HIGH MEADOWS DR GIBSONIA PA 15044,RICHLAND,40.619879064176665,-79.935049991924174,408002
1506M00047000000,1064 HIGH MEADOWS DR GIBSONIA PA 15044,RICHLAND,40.621564606580613,-79.935807441796243,408002
1506H00049000000,1016 WOODHILL DR GIBSONIA PA 15044,RICHLAND,40.623133987939283,-79.937197611937862,408002
1506G00384000000,4212 E EWALT RD GIBSONIA PA 15044,RICHLAND,40.625079503240840,-79.940809402119854,408002
1506E00010000000,114 RANA LN GIBSONIA PA 15044,RICHLAND,40.624959010954960,-79.946143258577436,408002
1505R00003000000,107 TARTAN RD GIBSONIA PA 15044,RICHLAND,40.619361434649306,-79.957753038212189,408002
1505P00045000000,5292 RICHLAND RD GIBSONIA PA 15044,RICHLAND,40.620614260169141,-79.957797136598757,408002
1505L00019000000,131 TARTAN RD GIBSONIA PA 15044,RICHLAND,40.620889638867730,-79.955376619992322,408002
1505B00091000000,3890 ANDERSON RD GIBSONIA PA 15044,RICHLAND,40.627286380084364,-79.957159701445747,408002
1503A00007000000,620 KARRASTYN CT GIBSONIA PA 15044,PINE,40.626174185956479,-80.000099798204189,409001
1502J00012000000,607 GRANDVIEW DR GIBSONIA PA 15044,PINE,40.622847256767109,-80.016350634243977,409001
1502F00014000000,704 PARKVIEW DR GIBSONIA PA 15044,PINE,40.624095839289929,-80.011923972556573,409001
1502F00004000000,711 PARKVIEW DR GIBSONIA PA 15044,PINE,40.625242380127936,-80.010868149372612,409001
1502E00009000000,702 PARKVIEW DR GIBSONIA PA 15044,PINE,40.623560470769249,-80.011857343532043,409001
1502E00006000000,526 SALEM HEIGHTS DR GIBSONIA PA 15044,PINE,40.623712758505157,-80.014018999587364,409001
1502B00013000000,818 CHAPEL HILL CT GIBSONIA PA 15044,PINE,40.626858774633533,-80.008454896909512,409001
1502A00036000000,720 PARKVIEW DR GIBSONIA PA 15044,PINE,40.627677756047220,-80.013293868402414,409001
1502A00009000000,504 SALEM HEIGHTS DR GIBSONIA PA 15044,PINE,40.627432848584306,-80.015633818517315,409001
1501M00002000000,611 GRANDVIEW DR GIBSONIA PA 15044,PINE,40.622134933016028,-80.017501163533112,409001
1501H00002000000,413 HEIGHTS DR GIBSONIA PA 15044,PINE,40.624432980451829,-80.017666483050675,409001
1501D00009000000,114 TOR CIR GIBSONIA PA 15044,PINE,40.626525637416250,-80.019994264374361,409001
1500C00001000000,105 HILL RD WEXFORD PA 15090,PINE,40.628118180767629,-80.036201939370940,409001
1499P00014000000,120 MCCANDLESS PL WEXFORD PA 15090,PINE,40.619484380287481,-80.061156665690163,409001
1499P00006000000,241 ROSSCOMMON RD WEXFORD PA 15090,PINE,40.619261116439198,-80.059177674428184,409001
1499J00044000000,121 BLUE HERON DR WEXFORD PA 15090,PINE,40.620797272568950,-80.064748639928197,409001
1499F00009000000,180 WEXFORD BAYNE RD WEXFORD PA 15090,PINE,40.624862176136411,-80.058602841754123,409001
1498S00013000000,220 ASH CT WEXFORD PA 15090,MARSHALL,40.618738993876669,-80.069550586257407,411002
1498S00012000000,216 ASH CT WEXFORD PA 15090,MARSHALL,40.618935660868992,-80.069329863025516,411002
1498R00027000000,106 FARMINGDALE RD WEXFORD PA 15090,MARSHALL,40.620173103910425,-80.072626364071880,411002
1498M00380050900,509 ALTMYER FIELDS LN WEXFORD PA 15090,MARSHALL,40.620926993853907,-80.070867346978730,411002
1498M00300050100,501 ALTMYER FIELDS LN WEXFORD PA 15090,MARSHALL,40.621099340788263,-80.070005080324762,411002
1498M00099051600,516 ALTMYER FIELDS LN WEXFORD PA 15090,MARSHALL,40.621382778375867,-80.071836175003753,411002
1498M00009000000,305 OSPREY CT WEXFORD PA 15090,PINE,40.622547506326626,-80.067084654228026,409001
1498J00043000000,923 SUMMIT DR WEXFORD PA 15090,MARSHALL,40.622203194630750,-80.080902228679676,411002
1498H00044000000,655 SHORTLINE CT WEXFORD PA 15090,PINE,40.624501530874873,-80.067561822764318,409001
1498H00036000000,1922 STATION ST WEXFORD PA 15090,PINE,40.624926389814824,-80.067358030836218,409001
1498D00037000000,1927 STATION ST WEXFORD PA 15090,PINE,40.625975981740154,-80.067809250411287,409001
1498D00033000000,1923 STATION ST WEXFORD PA 15090,PINE,40.625664841902193,-80.067298316817499,409001
1497M00026000000,815 HILLCREST CIR WEXFORD PA 15090,MARSHALL,40.621666044611260,-80.085120196030417,411002
1497H00001000000,728 HIGHPOINT DR WEXFORD PA 15090,MARSHALL,40.623103878895435,-80.083384111478807,411002
1469S00022000000,225 HORSE SHOE DR CLINTON PA 15026,FINDLAY,40.481981509595116,-80.317011062337784,452000
1469S00010000000,237 HORSE SHOE DR CLINTON PA 15026,FINDLAY,40.482970444648700,-80.317464191157271,452000
1469S00009000000,228 HORSE SHOE DR CLINTON PA 15026,FINDLAY,40.482947628707919,-80.316832762354508,452000
1469S00008000000,239 HORSE SHOE DR CLINTON PA 15026,FINDLAY,40.483181855947109,-80.317430092583976,452000
1469S00002000000,245 HORSE SHOE DR CLINTON PA 15026,FINDLAY,40.483663225933995,-80.316538161593826,452000
1469H00030000000,60 EQUESTRIAN DR IMPERIAL PA 15126,FINDLAY,40.487102777106436,-80.317342026435043,452000
1469H00026000000,52 EQUESTRIAN DR IMPERIAL PA 15126,FINDLAY,40.487865456049732,-80.316794288141011,452000
1469H00025000000,50 EQUESTRIAN DR IMPERIAL PA 15126,FINDLAY,40.488072862654931,-80.316688420285899,452000
1468H00002000000,504 BELGIAN CT CLINTON PA 15026,FINDLAY,40.479455879803290,-80.316965783324761,452000
1468D00026000000,506 BELGIAN CT CLINTON PA 15026,FINDLAY,40.479651780192867,-80.316849017456434,452000
1468D00012000000,503 BELGIAN CT CLINTON PA 15026,FINDLAY,40.479922062219117,-80.317443609090049,452000
1421D00038000000,1110 DECKER ST CLAIRTON PA 15025,JEFFERSON HILLS,40.257727166506157,-79.920100261324507,564500
1421C00060000000,1157 ALICE AVE CLAIRTON PA 15025,JEFFERSON HILLS,40.256287949637922,-79.923844707191151,564500
1421B00182000000,1436 COLLINS AVE CLAIRTON PA 15025,JEFFERSON HILLS,40.258311517131766,-79.928142628057529,564500
1416E00355000000,304 GROUSE DR ELIZABETH PA 15037,ELIZABETH TWP,40.255877703858943,-79.849252265611412,496102
1414H00037000000,0 FALLEN TIMBER RD ELIZABETH PA 15037,ELIZABETH TWP,40.254302873464837,-79.800429205280892,496102
1414E00114000000,1365 FALLEN TIMBER RD ELIZABETH PA 15037,ELIZABETH TWP,40.254644343401445,-79.814594759398346,496101
1368R00154000000,23 LINDEN ST NATRONA HEIGHTS PA 15065,HARRISON,40.610112302930709,-79.723125375838890,401200
1368G00380000000,48 VINE ST NATRONA HEIGHTS PA 15065,HARRISON,40.615809793577988,-79.723788059957428,401200
1368G00283000000,101 CHESTNUT ST NATRONA HEIGHTS PA 15065,HARRISON,40.614298682948252,-79.724453496200326,401200
1367S00260000000,0 BLUFF ST NATRONA HEIGHTS PA 15065,HARRISON,40.608872551252084,-79.734538116084224,401200
1367F00105000000,1012 CARLISLE ST NATRONA HEIGHTS PA 15065,HARRISON,40.614573536270363,-79.743141250876079,401300
1367C00159000000,1125 CARLISLE ST NATRONA HEIGHTS PA 15065,HARRISON,40.616635619223260,-79.739741207835266,401300
1360M00204000000,7 DEER PARK DR CHESWICK PA 15024,WEST DEER,40.612859514096769,-79.851179131628925,407002
1356K00066000000,5184 S CARTERTON DR GIBSONIA PA 15044,HAMPTON,40.612089387327913,-79.928705281767719,414101
1356G00324000000,3312 STAG DR GIBSONIA PA 15044,HAMPTON,40.615394953259447,-79.922634143520739,414101
1356G00059000000,3615 W STAG DR GIBSONIA PA 15044,HAMPTON,40.614099653854318,-79.920813070571668,414101
1356B00262000000,142 CARTERS GROVE DR GIBSONIA PA 15044,RICHLAND,40.616553634875494,-79.927144507235255,408002
1355G00083000000,3012 E HARDIES RD GIBSONIA PA 15044,HAMPTON,40.614496598041754,-79.939403988495599,414101
1355D00255000000,4086 VALLEYVUE DR GIBSONIA PA 15044,RICHLAND,40.617165128356596,-79.937215189938229,408002
1355B00366000000,5306 RANALLI DR GIBSONIA PA 15044,RICHLAND,40.616440501037758,-79.945382661875612,408002
1354P00090000000,5169 HAMPTON PLACE DR GIBSONIA PA 15044,HAMPTON,40.610448756886491,-79.961444997472469,414102
1354P00072000000,5122 HAMPTON PLACE DR GIBSONIA PA 15044,HAMPTON,40.608626279346694,-79.961125845672527,414102
1354K00084000000,5170 HAMPTON PLACE DR GIBSONIA PA 15044,HAMPTON,40.611043338226700,-79.960856126629011,414102
1354K00082000000,5176 HAMPTON PLACE DR GIBSONIA PA 15044,HAMPTON,40.611318866977655,-79.960765754931316,414102
1354C00109000000,218 MACDUFF CT GIBSONIA PA 15044,RICHLAND,40.617854898070057,-79.956565498337170,408002
1353N00020000000,2194 GRANDEUR DR GIBSONIA PA 15044,HAMPTON,40.608324511803751,-79.982455843447212,414102
1352R00231000000,2114 N VILLA CT GIBSONIA PA 15044,HAMPTON,40.608259262108803,-79.989244200842634,414102
1352P00114000000,605 TIVOLI DR GIBSONIA PA 15044,MCCANDLESS,40.609711290385754,-79.992768493230656,413100
1352A00002000000,10715 BABCOCK BLVD GIBSONIA PA 15044,PINE,40.617942498376117,-79.998504027782076,409001
1349N00149000000,100 ASHLEY HILL DR WEXFORD PA 15090,MCCANDLESS,40.608863857462914,-80.047587063072612,413100
1349G00003000000,331 MCKINNEY RD WEXFORD PA 15090,PINE,40.614273907376642,-80.038740052210997,409001
1349F00005000000,241 EDELWEISS DR WEXFORD PA 15090,MCCANDLESS,40.613940792568926,-80.044583439457924,409001
1349F00001000000,237 EDELWEISS DR WEXFORD PA 15090,MCCANDLESS,40.613926588703499,-80.045607199745177,409001
1348R00266005A00,10561 FOREST HILL DR WEXFORD PA 15090,MCCANDLESS,40.610911337237347,-80.058889015644127,413100
1348R00100010600,106 FOREST EDGE CT WEXFORD PA 15090,MCCANDLESS,40.608675426908491,-80.057431033606790,413100
1348P00052020D00,10527 TIMBER EDGE DR WEXFORD PA 15090,MCCANDLESS,40.609968167585045,-80.061017309421345,413100
1348P00040022C00,10555 TIMBER EDGE DR WEXFORD PA 15090,MCCANDLESS,40.610528085607520,-80.061767148281177,413100
1348P00040022B00,10553 TIMBER EDGE DR WEXFORD PA 15090,MCCANDLESS,40.610451090195603,-80.061785192966184,413100
1348K00055023C00,10575 TIMBER EDGE DR WEXFORD PA 15090,MCCANDLESS,40.610969326005659,-80.061454861460490,413100
1348C00027000000,70 MAPLE DR WEXFORD PA 15090,PINE,40.617526638371402,-80.057973446362084,409001
1347S00011000000,10524 MEINERT RD WEXFORD PA 15090,MCCANDLESS,40.608712550983796,-80.067738823776054,413100
1347N00014000000,2675 TIMBERGLEN EAST DR WEXFORD PA 15090,FRANKLIN PARK,40.609824172506400,-80.078972035094623,412003
1347M00020000000,305 OAK GROVE CT WEXFORD PA 15090,MCCANDLESS,40.611670580490291,-80.067114510734427,413100
1347H00006000000,2608 FOUNTAIN HILLS DR WEXFORD PA 15090,FRANKLIN PARK,40.614211926790389,-80.069211181116813,412003
1347G00275000000,2605 GLENCHESTER RD WEXFORD PA 15090,FRANKLIN PARK,40.615087741765940,-80.073246732349503,412003
1347F00072000000,2630 WOODMONT LN WEXFORD PA 15090,FRANKLIN PARK,40.614802426376102,-80.075805598413751,412003
1347E00059000000,1605 ENGLISH OAK CT WEXFORD PA 15090,FRANKLIN PARK,40.614604772130136,-80.082890395053809,412003
1347D00009000000,244 ASH CT WEXFORD PA 15090,MARSHALL,40.617292715257847,-80.070427157482470,411002
1347C00003000000,2732 COLE RD WEXFORD PA 15090,MARSHALL,40.617331787049395,-80.071167148884797,411002
1347A00010000000,6108 BERKSHIRE CT WEXFORD PA 15090,MARSHALL,40.616427021273054,-80.080959298740993,411002
1346H00058000000,1627 ENGLISH OAK CT WEXFORD PA 15090,FRANKLIN PARK,40.613767322866813,-80.086499312704134,412003
1346H00056000000,1618 ENGLISH OAK CT WEXFORD PA 15090,FRANKLIN PARK,40.614228031811976,-80.086704047542128,412003
1346H00012000000,1836 WILLOW OAK DR WEXFORD PA 15090,FRANKLIN PARK,40.615839180167647,-80.085232717098933,412003
1343F00123000000,2649 BIG SEWICKLEY CREEK RD SEWICKLEY PA 15143,FRANKLIN PARK,40.612113631823966,-80.143492264343323,412004
1320N00126000000,308 FILLY CIR CLINTON PA 15026,FINDLAY,40.482788373682183,-80.316259219707746,452000
1320N00122000000,305 FILLY CIR CLINTON PA 15026,FINDLAY,40.482378340587921,-80.315900185128342,452000
1320N00083000000,11 TROTTER LN CLINTON PA 15026,FINDLAY,40.483121701329836,-80.314298996801440,452000
1320J00028000000,135 MOODY RD IMPERIAL PA 15126,FINDLAY,40.484396036618676,-80.315804350986326,452000
1320G00078000000,331 PARK EDGE DR CLINTON PA 15026,FINDLAY,40.487281610268823,-80.304132307494598,452000
1320G00028000000,351 PARK EDGE DR CLINTON PA 15026,FINDLAY,40.487506760258889,-80.307014486035229,452000
1320G00011000000,510 MEADOW LN CLINTON PA 15026,FINDLAY,40.488877722934681,-80.307388344151690,452000
1320F00076000000,193-207 MOODY RD CLINTON PA 15026,FINDLAY,40.488863759331238,-80.310301284080055,452000
1320F00072000000,193-207 MOODY RD CLINTON PA 15026,FINDLAY,40.488327184220644,-80.309950370439708,452000
1320F00068000000,193-207 MOODY RD CLINTON PA 15026,FINDLAY,40.488571512508635,-80.309692920670500,452000
1320F00064000000,193-207 MOODY RD CLINTON PA 15026,FINDLAY,40.489029384148054,-80.309517557392923,452000
1320E00063000000,13 EQUESTRIAN DR IMPERIAL PA 15126,FINDLAY,40.487107504257061,-80.313627736043912,452000
1320E00011000000,22 EQUESTRIAN DR IMPERIAL PA 15126,FINDLAY,40.488144728449015,-80.313760275496719,452000
1319E00056000000,46 TROTTER LN CLINTON PA 15026,FINDLAY,40.479103334631134,-80.315303058719664,452000
1319E00054000000,48 TROTTER LN CLINTON PA 15026,FINDLAY,40.478933351917732,-80.315485418905567,452000
1319E00032000000,415 QUARTER HORSE LN CLINTON PA 15026,FINDLAY,40.477574795022683,-80.314721508650948,452000
1319E00031000000,57 TROTTER LN CLINTON PA 15026,FINDLAY,40.477959061532758,-80.315762093346109,452000
1319A00060000000,216 HORSE SHOE DR CLINTON PA 15026,FINDLAY,40.481857131562933,-80.316338165444762,452000
1272C00332000000,821 6TH AVE ELIZABETH PA 15037,ELIZABETH BORO,40.267349195341325,-79.889637878526528,494000
1272C00226000000,1013 8TH AVE ELIZABETH PA 15037,ELIZABETH BORO,40.265669971973786,-79.890262636821333,494000
1270S00069000000,168 GROUSE DR ELIZABETH PA 15037,ELIZABETH TWP,40.258861424674464,-79.849753482439738,496102
1270S00004000000,165 GROUSE DR ELIZABETH PA 15037,ELIZABETH TWP,40.258466314444298,-79.850377175755014,496102
1270R00024000000,213 ASH DR ELIZABETH PA 15037,ELIZABETH TWP,40.260463574185643,-79.857039253651635,496102
1270D00052000000,952 SCENERY DR ELIZABETH PA 15037,ELIZABETH TWP,40.267705959375093,-79.849909651722726,496102
1269H00334000000,428 SIMPSON HOWELL RD ELIZABETH PA 15037,ELIZABETH TWP,40.264904362179507,-79.836553566837210,496102
1269D00351000000,407 JEFFREYS DR ELIZABETH PA 15037,ELIZABETH TWP,40.266017894069762,-79.836954039045224,496102
1268A00332000000,515 HIGH ST ELIZABETH PA 15037,ELIZABETH TWP,40.267524614888316,-79.832435784615740,496101
1267N00125000000,951 PATTERSON RD ELIZABETH PA 15037,ELIZABETH TWP,40.257754766775705,-79.813983639877236,496101
1267G00228000000,0 BOYDS HOLLOW RD ELIZABETH PA 15037,ELIZABETH TWP,40.265390725026641,-79.806015982104924,496101
1267G00216000000,0 BOYDS HOLLOW RD BUENA VISTA PA 15018,ELIZABETH TWP,40.265548590352324,-79.805398054414155,496101
1267C00024000000,0 BOYDS HOLLOW RD BUENA VISTA PA 15018,ELIZABETH TWP,40.265722666144853,-79.804827689459685,496101
1266L00224000000,750 KRATT ST BUENA VISTA PA 15018,ELIZABETH TWP,40.261132001335667,-79.790308490662511,496101
1266F00078000000,551 INDUSTRY RD BUENA VISTA PA 15018,ELIZABETH TWP,40.265323559209605,-79.792712731533896,496101
1244N00175000000,1488 CAVITT RD MONROEVILLE PA 15146,MONROEVILLE,40.423774646823823,-79.713124316942398,521401
1243L00207000000,114 PAGODA DR MONROEVILLE PA 15146,MONROEVILLE,40.436272610654761,-79.706714296972635,521500
1242C00314000000,104 TETON DR PITTSBURGH PA 15239,PLUM,40.450942311363178,-79.705737920262010,526302
1242B00061000000,274 SHASTA DR PITTSBURGH PA 15239,PLUM,40.451776871155097,-79.708772226852986,526302
1241F00387000000,728 BLUE RIDGE RD PITTSBURGH PA 15239,PLUM,40.459332866969447,-79.712012071329724,526302
1240L00398000000,0 S DUANE DR S PITTSBURGH PA 15239,PLUM,40.467214631210858,-79.708241288320451,526302
1240K00389000000,201 GIBRALTER DR PITTSBURGH PA 15239,PLUM,40.467184122633583,-79.709072190768552,526302
1240E00109000000,640 BLUE RIDGE RD PITTSBURGH PA 15239,PLUM,40.467616451623527,-79.714131281383189,526302
1240E00038000000,0 CARNIVAL DR PITTSBURGH PA 15239,PLUM,40.469223905367329,-79.713305685264814,526302
1238K00266000000,186 MARDI GRAS DR PITTSBURGH PA 15239,PLUM,40.486218539873512,-79.710229934401397,526301
1224G00096000000,885 BRACKENRIDGE AVE BRACKENRIDGE PA 15014,BRACKENRIDGE,40.604622513716166,-79.741092739704442,402000
1224F00301000000,824 5TH AVE BRACKENRIDGE PA 15014,BRACKENRIDGE,40.605181194954355,-79.744573283871730,402000
1223N00024000000,332 1/2 W 10TH AVE TARENTUM PA 15084,TARENTUM,40.600718967291058,-79.766031666760256,403500
1223G00207000000,926 CORBET ST TARENTUM PA 15084,TARENTUM,40.605796668326988,-79.754051953000683,403500
1222S00122000000,408 W 10TH AVE TARENTUM PA 15084,TARENTUM,40.600113123445460,-79.767150913361746,403500
1221E00128000000,101 HEMLOCK LN TARENTUM PA 15084,FRAZER,40.604849506007874,-79.796649650372999,405000
1220K00177000000,2638 BUTLER LOGAN RD TARENTUM PA 15084,FRAZER,40.602888719625312,-79.811559453952285,405000
1214K00074000000,3435 CEDAR GLEN DR ALLISON PARK PA 15101,WEST DEER,40.601414759952348,-79.909557921652592,407002
1214E00329000000,107 LEX LN ALLISON PARK PA 15101,WEST DEER,40.605900332883365,-79.913202844252368,407002
1213M00299000000,4960 MEADOW CREST DR ALLISON PARK PA 15101,HAMPTON,40.602256547653880,-79.920237428588308,414101
1213J00042000000,4876 OTTAWA CT GIBSONIA PA 15044,HAMPTON,40.601755790380778,-79.930459908708428,414101
1213C00050000000,3302 WINDSTREAM DR GIBSONIA PA 15044,HAMPTON,40.606194884008858,-79.922246054550783,414101
1213B00394000000,5148 MEADOWRIDGE LN GIBSONIA PA 15044,HAMPTON,40.608411073099369,-79.928777612181889,414101
1213B00267000000,3390 CRAMLINGTON DR GIBSONIA PA 15044,HAMPTON,40.607802339580651,-79.926066080035440,414101
1213A00025000000,3080 SEMINOLE CT GIBSONIA PA 15044,HAMPTON,40.606012583561224,-79.931915527646112,414101
1212A00370000000,5031 S PIONEER RD GIBSONIA PA 15044,HAMPTON,40.607780226264858,-79.951166610499655,414102
1211R00002272900,2729 FLAT STONE CT GIBSONIA PA 15044,HAMPTON,40.599531848724801,-79.956270043159748,414102
1211R00002001200,4922 CANYON CREEK TRL GIBSONIA PA 15044,HAMPTON,40.599379136882476,-79.957664773965902,414102
1211P00005000000,4937 OAKHURST AVE GIBSONIA PA 15044,HAMPTON,40.599184579562028,-79.960475076341083,414102
1211M00318000000,4977 GITTINGS DR GIBSONIA PA 15044,HAMPTON,40.602567225717912,-79.953824488021240,414102
1211M00276000000,4948 GITTINGS DR GIBSONIA PA 15044,HAMPTON,40.601283523959715,-79.953066776487262,414102
1211B00102000000,5086 HAMPTON PLACE DR GIBSONIA PA 15044,HAMPTON,40.607650863069217,-79.960527258144467,414102
1210S00199000000,2506 BANKS SCHOOL RD GIBSONIA PA 15044,HAMPTON,40.598724329020179,-79.969127483419001,414102
1210F00080000000,5006 HARDT RD GIBSONIA PA 15044,HAMPTON,40.604610264126713,-79.975499170211975,414102
1210B00170000000,5061 HARDT RD GIBSONIA PA 15044,HAMPTON,40.607180157077622,-79.976573381785883,414102
1209H00034000000,2190 S VILLA DR GIBSONIA PA 15044,HAMPTON,40.605282237006669,-79.983289433007144,414102
1209H00028000000,2178 S VILLA DR GIBSONIA PA 15044,HAMPTON,40.604295233216718,-79.983510715215402,414102
1209H00015000000,2189 CHARDONNAY CIR GIBSONIA PA 15044,HAMPTON,40.604025461892242,-79.987420657052056,414102
1209C00021000000,2124 S VILLA DR GIBSONIA PA 15044,HAMPTON,40.606246214819357,-79.988767176746904,414102
1209B00174000000,506 SANDYLYNN DR GIBSONIA PA 15044,MCCANDLESS,40.607755663810906,-79.992998900467171,413100
1209A00027000000,10496 ALLANTE CT GIBSONIA PA 15044,MCCANDLESS,40.607686979143523,-79.996116669213492,413100
1209A00019000000,10489 ALLANTE CT GIBSONIA PA 15044,MCCANDLESS,40.606226181555066,-79.996374118490536,413100
1209A00007000000,10478 OLDE VILLA DR GIBSONIA PA 15044,MCCANDLESS,40.606986938315579,-79.997669229780954,413100
1207N00239000000,408 STAG HORN DR WEXFORD PA 15090,MCCANDLESS,40.600193228660572,-80.031722092733006,413100
1207N00106000000,10109 DEER VIEW PT WEXFORD PA 15090,MCCANDLESS,40.600336089916240,-80.029743005514888,413100
1206S00065000000,307 RUSTIN WAY WEXFORD PA 15090,MCCANDLESS,40.601364294115811,-80.035813181894014,413100
1206S00044000000,316 RUSTIN WAY WEXFORD PA 15090,MCCANDLESS,40.599264340037514,-80.035424245006610,413100
1206M00110000000,10300 GRUBBS RD WEXFORD PA 15090,MCCANDLESS,40.602221387874451,-80.033631228719827,413100
1206A00003000000,103 ASHLEY HILL DR WEXFORD PA 15090,MCCANDLESS,40.608169772444924,-80.047855409381171,413100
1205N00142000000,440 NEDHAM CT WEXFORD PA 15090,MCCANDLESS,40.599107482847074,-80.065716266837526,413100
1205G00045000000,102 AMBER CT WEXFORD PA 15090,MCCANDLESS,40.604710144858608,-80.058486896843974,413100
1205D00183000000,5 LITTLE MEADOW RD WEXFORD PA 15090,MCCANDLESS,40.608620559342171,-80.049775804109885,413100
1204P00229000000,2464 BRANDT SCHOOL RD WEXFORD PA 15090,FRANKLIN PARK,40.599473092582379,-80.077382474975181,412003
1204M00037000000,2486 MATTERHORN DR WEXFORD PA 15090,FRANKLIN PARK,40.602853175692879,-80.070388334930541,412003
1204M00021000000,2489 MATTERHORN DR WEXFORD PA 15090,FRANKLIN PARK,40.603549087895537,-80.070046981017370,412003
1204G00175000000,2517 MATTERHORN DR WEXFORD PA 15090,FRANKLIN PARK,40.605007432234238,-80.071645203198941,412003
1204D00001000000,2304 CHALET CT WEXFORD PA 15090,FRANKLIN PARK,40.606312798856905,-80.067975538668264,412003
1203P00061000000,1435 LAUREL DR SEWICKLEY PA 15143,FRANKLIN PARK,40.599851080072114,-80.094975072080047,412004
1203P00052000000,1429 LAUREL DR SEWICKLEY PA 15143,FRANKLIN PARK,40.599837206065750,-80.095566875248437,412004
1203N00113000000,1420 LAUREL DR SEWICKLEY PA 15143,FRANKLIN PARK,40.599381480755603,-80.096603221656096,412004
1203N00021000000,1460 LAUREL DR SEWICKLEY PA 15143,FRANKLIN PARK,40.600602618055945,-80.095868443295515,412004
1203L00065000000,2577A GROUSE RDG WEXFORD PA 15090,FRANKLIN PARK,40.603122726630723,-80.090576569992336,412003
1203H00064000000,2530 SHELLBURNE DR WEXFORD PA 15090,FRANKLIN PARK,40.604280962415586,-80.083556229200170,412003
1203G00028000000,2561B PHEASANT RUN WEXFORD PA 15090,FRANKLIN PARK,40.604678635300196,-80.089684437859248,412003
1202S00079000000,1622 TWIN OAKS DR SEWICKLEY PA 15143,FRANKLIN PARK,40.599577497112293,-80.101150589369652,412004
1202R00045000000,1603 TWIN OAKS DR SEWICKLEY PA 15143,FRANKLIN PARK,40.598528086057158,-80.106777977474408,412004
1202P00030000000,1434 MYSTIC VALLEY DR SEWICKLEY PA 15143,FRANKLIN PARK,40.599667412275579,-80.107938932569880,412004
1202H00436000000,2537 ADELE CT SEWICKLEY PA 15143,FRANKLIN PARK,40.605022564217450,-80.100259651954389,412004
1202H00321000000,2006 CONNECTICUT LN SEWICKLEY PA 15143,FRANKLIN PARK,40.605863270669133,-80.103378123714307,412004
1201S00325000000,2501 WEXFORD BAYNE RD SEWICKLEY PA 15143,FRANKLIN PARK,40.601443480497089,-80.119132077855838,412004
1134M00022000000,1035 7TH ST WEST ELIZABETH PA 15088,WEST ELIZABETH,40.270525182665843,-79.900951998173994,564500
1133S00120000000,16 HAYDEN BLVD ELIZABETH PA 15037,ELIZABETH BORO,40.269980343550962,-79.884414053942507,494000
1133R00206000000,500 BAYARD ST ELIZABETH PA 15037,ELIZABETH BORO,40.269691642413264,-79.888120416223884,494000
1133J00055000000,710 3RD ST WEST ELIZABETH PA 15088,WEST ELIZABETH,40.272181178163066,-79.896032019008757,564500
1132F00276000000,405 WYLIE AVE ELIZABETH PA 15037,ELIZABETH TWP,40.274164081553437,-79.876859564428770,496102
1132B00387000000,623 DOUGLAS AVE ELIZABETH PA 15037,ELIZABETH TWP,40.276895688448612,-79.875282086090237,496102
1132B00134000000,508 MONONGAHELA AVE ELIZABETH PA 15037,ELIZABETH TWP,40.276276140243290,-79.876739311107514,496102
1130R00334000000,200 CLOVER DR ELIZABETH PA 15037,ELIZABETH TWP,40.270508480214716,-79.839405341185000,496102
1130K00014000000,214 MCLAY DR ELIZABETH PA 15037,ELIZABETH TWP,40.271125252778340,-79.841383384584432,496102
1129N00118000000,208 DENNIS ST ELIZABETH PA 15037,ELIZABETH TWP,40.268288947581269,-79.831847804851378,496101
1129L00278000000,508 ROCK RUN RD ELIZABETH PA 15037,ELIZABETH TWP,40.272138441282117,-79.823756713469535,496101
1129E00162000000,113 DORMAN DR ELIZABETH PA 15037,ELIZABETH TWP,40.275234971678167,-79.829500566495014,496101
1127J00389000000,184 INDUSTRY RD BUENA VISTA PA 15018,ELIZABETH TWP,40.272677444740566,-79.798625565022888,496101
1127J00065000000,201 MCCORKLE CT BUENA VISTA PA 15018,ELIZABETH TWP,40.272408858720418,-79.796385648428256,496101
1127A00255000000,0 MUSE ST BUENA VISTA PA 15018,ELIZABETH TWP,40.276687713612432,-79.798520909698411,496200
1127A00252000000,300-302 STYCHE ST BUENA VISTA PA 15018,ELIZABETH TWP,40.276604484354465,-79.798927499226622,496200
1108M00297000000,435 ALPINE VILLAGE DR MONROEVILLE PA 15146,MONROEVILLE,40.418487946627387,-79.718567006497622,521401
1107R00240000000,132 ALPINE VILLAGE DR MONROEVILLE PA 15146,MONROEVILLE,40.424364567208791,-79.723409364361629,521401
1104K00287000000,1080 BALKAN DR PITTSBURGH PA 15239,PLUM,40.456173332607015,-79.725604626272315,526202
1104H00235000000,1119 OBLOCK RD PITTSBURGH PA 15239,PLUM,40.458542016539653,-79.719045447156219,526301
1104D00007000000,693 HARBORVIEW DR PITTSBURGH PA 15239,PLUM,40.462236759210604,-79.716630662929546,526302
1103K00373000000,260 MCKIM DR PITTSBURGH PA 15239,PLUM,40.467371819695529,-79.726914141122606,526301
1103H00230000000,525 RAINIER DR PITTSBURGH PA 15239,PLUM,40.467791846949090,-79.718656703898546,526302
1103G00224000000,916 MOUNT HOOD DR PITTSBURGH PA 15239,PLUM,40.469402721070203,-79.722576516642832,526301
1103F00062000000,961 KEY WEST DR PITTSBURGH PA 15239,PLUM,40.468990372557457,-79.725790118941376,526301
1103E00204000000,559 NEW TEXAS RD PITTSBURGH PA 15239,PLUM,40.468751880416264,-79.729704731482101,526301
1102J00038000000,105 PARKVIEW DR PITTSBURGH PA 15239,PLUM,40.476031996544329,-79.732416512494083,526301
1102J00015000000,208 VICTORIA DR PITTSBURGH PA 15239,PLUM,40.475068390206147,-79.730612915237657,526301
1102J00011000000,200 VICTORIA DR PITTSBURGH PA 15239,PLUM,40.476225160377801,-79.730383041003989,526301
1102J00009000000,114 PARKVIEW DR PITTSBURGH PA 15239,PLUM,40.476781740372317,-79.731120243338978,526301
1102F00016000000,185 CHAVELLE CT PITTSBURGH PA 15239,PLUM,40.477408995235351,-79.728014757545168,526301
1102E00029000000,123 PARKVIEW DR PITTSBURGH PA 15239,PLUM,40.477412068115029,-79.730279421035434,526301
1101N00040000000,9261 WEDGEWOOD DR PITTSBURGH PA 15239,PLUM,40.482676723196477,-79.729399593857252,526102
1100B00370000000,1527 RENTON RD PITTSBURGH PA 15239,PLUM,40.501211779576664,-79.727757471522708,526102
1098R00170000000,4257 SARDIS RD PITTSBURGH PA 15239,PLUM,40.511248013914148,-79.722621691890637,526102
1095J00216000000,1357 NEWGATE DR NEW KENSINGTON PA 15068,PLUM,40.544887258763481,-79.732073393041645,526101
1095J00206000000,0 NEWGATE DR NEW KENSINGTON PA 15068,PLUM,40.544746605823946,-79.731909949470406,526101
1080M00174000000,251 MYERS LN ALLISON PARK PA 15101,INDIANA,40.593168984242936,-79.885122136947246,415001
1078P00258000000,3121 TALL OAK DR ALLISON PARK PA 15101,HAMPTON,40.589449579275552,-79.927106821047147,414101
1078P00208000000,4573 MIDDLE RD ALLISON PARK PA 15101,HAMPTON,40.589798694168927,-79.926594350340096,414101
1078K00034000000,3220 MCALISTER FARM LN ALLISON PARK PA 15101,HAMPTON,40.593360455486710,-79.925856189741040,414101
1078K00028000000,3212 HAMPTON OAKS DR ALLISON PARK PA 15101,HAMPTON,40.591865883256339,-79.926971273687471,414101
1078K00012000000,3217 HAMPTON OAKS DR ALLISON PARK PA 15101,HAMPTON,40.592662915841224,-79.926533517287524,414101
1078F00381000000,4791 MIDDLE RD ALLISON PARK PA 15101,HAMPTON,40.596223215026257,-79.928435683765159,414101
1078B00207000000,4800 MIDDLE RD ALLISON PARK PA 15101,HAMPTON,40.597015633818984,-79.928078758946867,414101
1077R00220000000,4626 HIDDEN POND DR ALLISON PARK PA 15101,HAMPTON,40.589152658874688,-79.939013263293248,414101
1077B00285000000,2924 MCNEAL RD ALLISON PARK PA 15101,HAMPTON,40.597548250296533,-79.943386503180164,414101
1076N00125468200,4682 VITULLO DR ALLISON PARK PA 15101,HAMPTON,40.589505186258393,-79.965353552754337,414102
1076N00125256200,2562 RED OAK CT ALLISON PARK PA 15101,HAMPTON,40.588285798221797,-79.964432227313210,414102
1076G00160000000,4744 GREENWOOD DR ALLISON PARK PA 15101,HAMPTON,40.594419709886871,-79.955048495997758,414102
1075S00315000000,2483 WILLOW OAK DR ALLISON PARK PA 15101,HAMPTON,40.590680111750800,-79.967879775646693,414102
1074H00385000000,4797 AU SABLE DR GIBSONIA PA 15044,HAMPTON,40.596013016294187,-79.987169270380178,414102
1074F00014000000,10088 MANSION DR GIBSONIA PA 15044,MCCANDLESS,40.595499532521885,-79.993809399783174,413500
1074B00033000000,10063 MANSION DR GIBSONIA PA 15044,MCCANDLESS,40.596739857064335,-79.993311746899920,413500
1074B00029000000,10071 MANSION DR GIBSONIA PA 15044,MCCANDLESS,40.596447213122794,-79.993122270205291,413500
1072R00025000000,9920 LEGRAND DR WEXFORD PA 15090,MCCANDLESS,40.590771899384357,-80.024154300859422,413100
1072H00353000000,9992 PARKLAND DR WEXFORD PA 15090,MCCANDLESS,40.594862998274635,-80.019327604238413,413100
1072H00258000000,709 PARKWOOD CT WEXFORD PA 15090,MCCANDLESS,40.593929550952481,-80.017847878436839,413100
1071F00068000000,305 WAGON WHEEL TRL WEXFORD PA 15090,MCCANDLESS,40.594402080098867,-80.042960211518064,413100
1070S00376000000,216-220 PINE CREEK RD WEXFORD PA 15090,MCCANDLESS,40.590696423053565,-80.053312349867966,413202
1070P00111000000,424 BROOKS RD WEXFORD PA 15090,MCCANDLESS,40.589659299583609,-80.059768171313593,413202
1070K00349000000,385 PINE CREEK RD WEXFORD PA 15090,MCCANDLESS,40.593450718826197,-80.059724743047511,413202
1070B00056000000,10141 WOODBURY DR WEXFORD PA 15090,MCCANDLESS,40.596631048791870,-80.059785166205884,413100
1069N00358000000,2454 BELLWOOD DR PITTSBURGH PA 15237,FRANKLIN PARK,40.591078197692411,-80.082663452011388,412003
1069J00228000000,2437 BELLWOOD DR PITTSBURGH PA 15237,FRANKLIN PARK,40.592722942431202,-80.080606642683890,412003
1069G00403000000,2601 DOGWOOD CT WEXFORD PA 15090,FRANKLIN PARK,40.595357860925560,-80.073224490543154,412003
1069E00321000000,2463 ALYDAR DR WEXFORD PA 15090,FRANKLIN PARK,40.595519440228337,-80.081281857978169,412003
1069E00275000000,2470 ALYDAR DR WEXFORD PA 15090,FRANKLIN PARK,40.596457650784920,-80.080479435346064,412003
1069C00273000000,2510 ACORN CT WEXFORD PA 15090,FRANKLIN PARK,40.596575528792094,-80.072288440215004,412003
1069C00264000000,2508 ACORN CT WEXFORD PA 15090,FRANKLIN PARK,40.596618464706317,-80.072695963933427,412003
1069C00101000000,2425 DOGWOOD DR WEXFORD PA 15090,FRANKLIN PARK,40.598466257138831,-80.073934326693461,412003
1068R00056000000,1417 SCARLETT RIDGE DR PITTSBURGH PA 15237,FRANKLIN PARK,40.590782631627654,-80.087595676630144,412003
1068R00054000000,1415 SCARLETT RIDGE DR PITTSBURGH PA 15237,FRANKLIN PARK,40.590458791146297,-80.087826257959236,412003
1068P00287000000,1641 SETTLERS DR SEWICKLEY PA 15143,FRANKLIN PARK,40.589939297194256,-80.093966224234848,412003
1068P00134000000,1710 HOLMES DR SEWICKLEY PA 15143,FRANKLIN PARK,40.589144768804488,-80.095077167049411,412003
1068M00103000000,1423 SCARLETT RIDGE DR PITTSBURGH PA 15237,FRANKLIN PARK,40.592106614142104,-80.086936826693957,412003
1068H00075000000,2497 SHADOWBROOK DR WEXFORD PA 15090,FRANKLIN PARK,40.595963947499186,-80.084693338364488,412003
1067R00279000000,1405 WINDSOR CT SEWICKLEY PA 15143,FRANKLIN PARK,40.590677044264041,-80.107351046145340,412004
1067R00278000000,1407 WINDSOR CT SEWICKLEY PA 15143,FRANKLIN PARK,40.590536600465413,-80.107449235032803,412004
1067R00274000000,1402 WINDSOR CT SEWICKLEY PA 15143,FRANKLIN PARK,40.591021968996472,-80.107768587509625,412004
1067R00273000000,1400 WINDSOR CT SEWICKLEY PA 15143,FRANKLIN PARK,40.591214344055544,-80.107612671972063,412004
1067M00050000000,1653 NORMAN DR SEWICKLEY PA 15143,FRANKLIN PARK,40.593646332838908,-80.104412570921752,412004
1067H00009000000,1663 NORMAN DR SEWICKLEY PA 15143,FRANKLIN PARK,40.594525911907020,-80.103838399232927,412004
1067G00031000000,1123 CASTLETOWN CT SEWICKLEY PA 15143,FRANKLIN PARK,40.593933102378358,-80.107929239569984,412004
1067G00001000000,1120 CASTLETOWN CT SEWICKLEY PA 15143,FRANKLIN PARK,40.595381327483416,-80.107726174525922,412004
1067B00019000000,1105 CASTLETOWN CT SEWICKLEY PA 15143,FRANKLIN PARK,40.596229771863911,-80.111452797662153,412004
1065N00166000000,108 BOWER DR SEWICKLEY PA 15143,BELL ACRES,40.589655549006238,-80.147654911491813,439000
1065N00021000000,105 BOWER DR SEWICKLEY PA 15143,BELL ACRES,40.590041443758352,-80.146155299497266,439000
1065F00170000000,2440 CAMPMEETING RD SEWICKLEY PA 15143,FRANKLIN PARK,40.595337086453313,-80.144256296480108,439000
1064E00027000000,109 BELL FARM ESTS SEWICKLEY PA 15143,BELL ACRES,40.596606819051459,-80.165261338217647,439000
1064E00015000000,110 BELL FARM ESTS SEWICKLEY PA 15143,BELL ACRES,40.595727773356174,-80.163897339936099,439000
1064A00110000000,163 CAMP MEETING RD EXT SEWICKLEY PA 15143,BELL ACRES,40.597871605086858,-80.165310642256259,439000
1051S00010030600,306 SPRINGWATER CT CORAOPOLIS PA 15108,MOON,40.532363068292199,-80.267532580289910,451104
1040F00005000000,8236 STEUBENVILLE PIKE MC DONALD PA 15057,NORTH FAYETTE,40.431750450060370,-80.276054053435857,564000
1010D00249000000,4097 BROWNSVILLE RD SOUTH PARK PA 15129,SOUTH PARK,40.286298530953978,-80.019315624724697,490002
1009M00105000000,3100 SOUTHERN DR SOUTH PARK PA 15129,SOUTH PARK,40.281544924449904,-80.001249175170713,490004
1009F00200000000,2922 OVERHILL ST SOUTH PARK PA 15129,SOUTH PARK,40.284046965905368,-80.009380119883573,490002
1009B00095000000,2802 KRAMER AVE SOUTH PARK PA 15129,SOUTH PARK,40.286357624675652,-80.012355650693948,490002
1008S00020000000,3612 FALMOUTH DR SOUTH PARK PA 15129,SOUTH PARK,40.278892376753987,-79.985290244699911,490004
1008J00266000000,3120 SOUTHERN DR SOUTH PARK PA 15129,SOUTH PARK,40.280825815525240,-79.998064071353511,490004
1008J00186000000,3118 NORTHERN DR SOUTH PARK PA 15129,SOUTH PARK,40.281751406535051,-79.998499464004695,490004
1008D00156000000,3090 AMY DR SOUTH PARK PA 15129,SOUTH PARK,40.285703247096059,-79.985433992036434,490004
1008B00301000000,1195 MIKE REED DR SOUTH PARK PA 15129,SOUTH PARK,40.285537382499925,-79.994218723845051,490004
1008A00245000000,3009 BROWNSVILLE RD EXT SOUTH PARK PA 15129,SOUTH PARK,40.285759033372337,-79.997855585672340,490004
1007S00240000000,4294 HAWTHORN DR SOUTH PARK PA 15129,SOUTH PARK,40.278729099456179,-79.968396272724760,490004
1007J00213000000,3371 MAPLE DR SOUTH PARK PA 15129,SOUTH PARK,40.281928933020772,-79.980578065811429,490004
1007J00174000000,1604 CORDWELL DR SOUTH PARK PA 15129,SOUTH PARK,40.280582144033119,-79.980013396286139,490004
1007G00070000000,1009 BARNSLEY DR SOUTH PARK PA 15129,SOUTH PARK,40.283831174209659,-79.975073345722961,490004
1007A00260000000,3157 RIDGE RD SOUTH PARK PA 15129,SOUTH PARK,40.286315880623462,-79.981235909231785,490004
1007A00213000000,3088 RIDGE RD SOUTH PARK PA 15129,SOUTH PARK,40.287118270251980,-79.982102996738249,490004
1006K00044000000,8004 INDEPENDENCE DR CLAIRTON PA 15025,JEFFERSON HILLS,40.281524421630849,-79.960310230523405,491101
1006E00126000000,6018 INDEPENDENCE DR CLAIRTON PA 15025,JEFFERSON HILLS,40.285065007287365,-79.962770779874816,491101
1002D00171000000,434 THOMPSON AVE CLAIRTON PA 15025,2ND WARD - CLAIRTON,40.286561294869948,-79.885650850663666,492900
1001R00043000000,0 KADAR LN ELIZABETH PA 15037,LINCOLN,40.278677740605922,-79.870613950385092,497000
0999D00326000000,126 HILLVIEW DR ELIZABETH PA 15037,ELIZABETH TWP,40.285615988907004,-79.836568731486736,496200
0981H00021000000,533 ARDEN DR MONROEVILLE PA 15146,MONROEVILLE,40.401259757323750,-79.736220058476661,521402
0980P00016000000,416 ARDEN DR MONROEVILLE PA 15146,MONROEVILLE,40.404542160084432,-79.743871940842538,521402
0980L00101000000,118 URICK LN MONROEVILLE PA 15146,MONROEVILLE,40.407197115195061,-79.737779514160252,521402
0979P00363000000,1340 HILLSDALE DR MONROEVILLE PA 15146,MONROEVILLE,40.415804654922923,-79.745116742101771,521402
0979A00119000000,104 VOLPE DR MONROEVILLE PA 15146,MONROEVILLE,40.421771371478606,-79.747300618201166,521401
0978H00130000000,4603 NORTHERN PIKE MONROEVILLE PA 15146,MONROEVILLE,40.430130797506287,-79.733122672042541,521401
0978B00137000000,226 BERKELEY WAY MONROEVILLE PA 15146,MONROEVILLE,40.432296050830004,-79.745138387120249,521401
0978B00128000000,151 FORT PITT BLVD PITTSBURGH PA 15222,MONROEVILLE,40.431704016979914,-79.744398788392871,521401
0977C00202000000,119 DONLEY DR MONROEVILLE PA 15146,MONROEVILLE,40.442695388786902,-79.740056486659370,521500
0976H00155000000,230 NOEL DR MONROEVILLE PA 15146,MONROEVILLE,40.448653992429584,-79.735520853036007,521500
0976A00387000000,117 KELLY CT MONROEVILLE PA 15146,MONROEVILLE,40.452983319203518,-79.746120250151293,521500
0973D00097000000,9147 SALTSBURG RD PITTSBURGH PA 15239,PLUM,40.479797742159576,-79.733397633080813,526102
0972G00179000000,196 SCARLET DR PITTSBURGH PA 15239,PLUM,40.488393700921897,-79.738335476259692,526102
0972C00157000000,416 SEPTEMBER DR PITTSBURGH PA 15239,PLUM,40.491732424293431,-79.738349332036691,526102
0972C00155000000,414 SEPTEMBER DR PITTSBURGH PA 15239,PLUM,40.491581875495029,-79.738211932813442,526102
0972C00084000000,506 OCTOBER CT PITTSBURGH PA 15239,PLUM,40.490502580014308,-79.738959317935738,526102
0972C00072000000,518 OCTOBER CT PITTSBURGH PA 15239,PLUM,40.491239949390312,-79.740050643520192,526102
0972C00062000000,511 OCTOBER CT PITTSBURGH PA 15239,PLUM,40.490482895863366,-79.739908546532035,526102
0972C00058000000,507 OCTOBER CT PITTSBURGH PA 15239,PLUM,40.490175009312011,-79.739597850154738,526102
0972B00179000000,3823 NEW TEXAS RD PITTSBURGH PA 15239,PLUM,40.490105966084208,-79.742223015830930,526201
0971P00060000000,3949 NEW TEXAS RD PITTSBURGH PA 15239,PLUM,40.492713359841041,-79.744901026403056,526201
0971A00413000000,406 MUIRFIELD CT PITTSBURGH PA 15239,PLUM,40.499698870612981,-79.749831733281155,526101
0970B00045000000,0 ROSS HOLLOW RD PITTSBURGH PA 15239,PLUM,40.509909393234153,-79.741558367120462,526101
0969P00077000000,68 RUSTIC RIDGE DR PITTSBURGH PA 15239,PLUM,40.513254421305852,-79.741857770985121,526101
0969J00122000000,132 RUSTIC RIDGE DR PITTSBURGH PA 15239,PLUM,40.514835250913109,-79.747346968204909,526101
0968K00069000000,1000 MCALLISTER DR NEW KENSINGTON PA 15068,PLUM,40.523950516352670,-79.742785149944140,526101
0968C00147000000,0 WEBSTER RD NEW KENSINGTON PA 15068,PLUM,40.528697174809380,-79.739202575516941,526101
0960N00095000000,781 KELLAR ALY CREIGHTON PA 15030,EAST DEER,40.580641783099225,-79.779816383722604,404000
0959H00028000000,429 CRAWFORD RUN RD CREIGHTON PA 15030,EAST DEER,40.585498812675894,-79.787059637135158,404000
0957H00007000000,3040 SYLVAN TER CHESWICK PA 15024,INDIANA,40.586062326821299,-79.820467899800278,415001
0957B00266000000,6 HAYS ST RURAL RIDGE PA 15075,INDIANA,40.588103022660569,-79.827612707234579,415001
0953M00260000000,122 MCCLELLAND DR PITTSBURGH PA 15238,INDIANA,40.582615271180778,-79.885880118202977,415001
0953M00250000000,201 SHAKER HEIGHTS DR PITTSBURGH PA 15238,INDIANA,40.582897547077209,-79.885856836850365,415001
0951S00108000000,4396 MIDDLE  RD ALLISON PARK PA 15101,HAMPTON,40.580013467789406,-79.918279923777902,414200
0951P00297005900,3283 LONG MEADOW DR ALLISON PARK PA 15101,HAMPTON,40.580545748012490,-79.924997265207622,414200
0949G00096000000,2678 OAK HILL DR ALLISON PARK PA 15101,HAMPTON,40.585197850410601,-79.954987420100110,414102
0948P00168000000,4544 BUCKTAIL DR ALLISON PARK PA 15101,HAMPTON,40.579533677751677,-79.977555437081946,414102
0947L00092000000,1432 TOWNE SQUARE DR ALLISON PARK PA 15101,MCCANDLESS,40.582367178857325,-79.990518232750588,413500
0946P00283000000,9570 CASTLETON DR ALLISON PARK PA 15101,MCCANDLESS,40.580185636693244,-80.009441731185248,413500
0946P00130000000,1284 HEATHER HEIGHTS DR ALLISON PARK PA 15101,MCCANDLESS,40.581277383587974,-80.011712216723566,413500
0946L00194000000,1522 PARKVIEW DR ALLISON PARK PA 15101,MCCANDLESS,40.583265964548680,-80.005475699100487,413500
0946E00005000000,9650 OLD KUMMER RD ALLISON PARK PA 15101,MCCANDLESS,40.584174494173809,-80.012383966454294,413500
0946D00113000000,9816 THREE DEGREE RD ALLISON PARK PA 15101,MCCANDLESS,40.586902592164968,-80.000634745300218,413500
0946D00072000000,9803 THREE DEGREE RD ALLISON PARK PA 15101,MCCANDLESS,40.587094572024945,-80.001691740163295,413500
0946D00019B00400,151 FORT PITT BLVD PITTSBURGH PA 15222,MCCANDLESS,40.587298840636393,-80.000094442925288,413500
0945P00266000000,9565 SARATOGA DR PITTSBURGH PA 15237,MCCANDLESS,40.580423752561707,-80.027501799732889,413500
0945J00023000000,415 WALNUT CT PITTSBURGH PA 15237,MCCANDLESS,40.582629056539254,-80.031579803423085,413201
0944N00012000000,425 EMERALD DR PITTSBURGH PA 15237,MCCANDLESS,40.579367898876839,-80.046574904717929,413201
0944L00232000000,114 W INGOMAR RD PITTSBURGH PA 15237,MCCANDLESS,40.582425384071392,-80.039171697586099,413202
0944K00919000000,919 CAMELOT DR PITTSBURGH PA 15237,MCCANDLESS,40.583796802054707,-80.042706438718625,413202
0943S00092000000,9620 FOX RD PITTSBURGH PA 15237,MCCANDLESS,40.581014151735936,-80.051056190568872,413201
0943P00216000000,9534 WOODCREST RD PITTSBURGH PA 15237,MCCANDLESS,40.580116325565115,-80.060751233062675,413202
0943N00211000000,1149 INGOMAR HEIGHTS RD PITTSBURGH PA 15237,MCCANDLESS,40.581230929683606,-80.064586737702740,413202
0943L00185000000,9720 HARMONY DR PITTSBURGH PA 15237,MCCANDLESS,40.583147366204372,-80.056113296313768,413202
0943K00284000000,1005 W INGOMAR RD PITTSBURGH PA 15237,MCCANDLESS,40.581918450731621,-80.061292122489490,413202
0943H00239000000,200 RIDGE AVE PITTSBURGH PA 15237,MCCANDLESS,40.586183573778364,-80.052408002217120,413202
0943H00215000000,230 RIDGE AVE PITTSBURGH PA 15237,MCCANDLESS,40.586147045054879,-80.053458606348016,413202
0943H00061000000,9750 GROSICK RD PITTSBURGH PA 15237,MCCANDLESS,40.584088860490482,-80.052038624495594,413202
0943E00095000000,1100 WOODLAND RD PITTSBURGH PA 15237,MCCANDLESS,40.585611164370242,-80.062817423877974,413202
0943A00187000000,1502 ASHBURY LN PITTSBURGH PA 15237,MCCANDLESS,40.587088670844054,-80.065763204543430,413202
0942K00319000000,1545 DALTON DR PITTSBURGH PA 15237,FRANKLIN PARK,40.583053528121852,-80.076613992183695,412002
0942J00055000000,2353 W INGOMAR RD PITTSBURGH PA 15237,FRANKLIN PARK,40.582873652851852,-80.079734043256039,412003
0942J00030000000,1561 W INGOMAR RD PITTSBURGH PA 15237,FRANKLIN PARK,40.583914504029316,-80.078967044087051,412002
0942F00111000000,1559 W INGOMAR RD PITTSBURGH PA 15237,FRANKLIN PARK,40.584148154108625,-80.078644749223145,412002
0942E00112000000,2372 BELLWOOD DR PITTSBURGH PA 15237,FRANKLIN PARK,40.585823977961674,-80.080300997842016,412003
0942D00185000000,1520 ASHBURY LN PITTSBURGH PA 15237,FRANKLIN PARK,40.587157496028205,-80.068621028025333,412003
0942C00083000000,1511 WEST VIEW LN PITTSBURGH PA 15237,FRANKLIN PARK,40.589371424917879,-80.069309150258178,412003
0942C00048000000,2400 ANTRIM CT PITTSBURGH PA 15237,FRANKLIN PARK,40.587838682390831,-80.071556675507239,412003
0942C00040000000,2402 ANTRIM CT PITTSBURGH PA 15237,FRANKLIN PARK,40.587588603127038,-80.071777093589901,412003
0941S00204000000,2348 HAVEN DR SEWICKLEY PA 15143,FRANKLIN PARK,40.580308977538422,-80.084908843160534,412002
0941R00309000000,2303 FERN HILL LN SEWICKLEY PA 15143,FRANKLIN PARK,40.580962991118930,-80.090725815230073,412002
0941P00052000000,1741 STEVENSAN DR SEWICKLEY PA 15143,FRANKLIN PARK,40.581164873017663,-80.094599732559104,412002
0941P00046000000,1901 KIMBERLY CT SEWICKLEY PA 15143,FRANKLIN PARK,40.580843072641507,-80.092931034283211,412002
0941P00024000000,1900 KIMBERLY CT SEWICKLEY PA 15143,FRANKLIN PARK,40.580716061960267,-80.092155945583954,412002
0941P00020000000,1410 OLIVIAN CT SEWICKLEY PA 15143,FRANKLIN PARK,40.581423803980250,-80.091857423204402,412002
0941P00010000000,1735 STEVENSAN DR SEWICKLEY PA 15143,FRANKLIN PARK,40.581462840325074,-80.095645861703687,412002
0941P00008000000,1737 STEVENSAN DR SEWICKLEY PA 15143,FRANKLIN PARK,40.581304503751440,-80.095327719257639,412002
0941K00030000000,1759 STEVENSAN DR SEWICKLEY PA 15143,FRANKLIN PARK,40.583769502134864,-80.092694353605310,412002
0941K00008000000,1738 STEVENSAN DR SEWICKLEY PA 15143,FRANKLIN PARK,40.582082312188760,-80.094074012469363,412002
0941H00298000000,2415 TRACI DR PITTSBURGH PA 15237,FRANKLIN PARK,40.585602772834100,-80.085338624263372,412003
0941F00338000000,1709 STEVENSAN DR SEWICKLEY PA 15143,FRANKLIN PARK,40.584714090479451,-80.095672763776165,412002
0941F00322000000,1712 STEVENSAN DR SEWICKLEY PA 15143,FRANKLIN PARK,40.584547720017049,-80.094716515121334,412002
0941F00271000000,2389A ROCHESTER RD SEWICKLEY PA 15143,FRANKLIN PARK,40.584651148788815,-80.093491899030838,412002
0941E00004000000,1705 STEVENSAN DR SEWICKLEY PA 15143,FRANKLIN PARK,40.585147175013596,-80.096006065079607,412002
0940B00141000000,1503 SUMMIT LN SEWICKLEY PA 15143,FRANKLIN PARK,40.589710677480561,-80.109138616773393,412004
0939L00089000000,2360 LITTLE SEWICKLEY CREEK RD SEWICKLEY PA 15143,FRANKLIN PARK,40.582939310139032,-80.121252544414574,412004
0936A00150000000,171 TURKEYFOOT RD SEWICKLEY PA 15143,BELL ACRES,40.586710962498799,-80.177708520196703,439000
0935E00014000000,225 SUMMERLAWN DR SEWICKLEY PA 15143,BELL ACRES,40.584082816684685,-80.198247345094316,439000
0934N00136000000,147 ORCHARD ST AMBRIDGE PA 15003,LEET,40.579425286054331,-80.216661012447048,447000
0933S00005000000,108 MAIN ST AMBRIDGE PA 15003,LEET,40.579227594142409,-80.216863223705658,447000
0927R00111000000,128 GLENGARRY DR CORAOPOLIS PA 15108,MOON,40.541547146022559,-80.255062433196670,451104
0926R00013000000,317 SKYLARK DR CORAOPOLIS PA 15108,MOON,40.531244388460458,-80.255563404988550,451104
0926M00363000000,225 GLENMORE DR CORAOPOLIS PA 15108,MOON,40.534890905366815,-80.251695158422919,451104
0926L00338000000,188 CIMARRON DR CORAOPOLIS PA 15108,MOON,40.534162400267412,-80.256886469122492,451104
0926K00042000000,349 RANCHERO DR CORAOPOLIS PA 15108,MOON,40.534685881681398,-80.261732627327888,451104
0926J00517000000,336 RANCHERO DR CORAOPOLIS PA 15108,MOON,40.535078516645676,-80.263184690720152,451104
0926J00037000000,342 RANCHERO DR CORAOPOLIS PA 15108,MOON,40.534655739322623,-80.262903589265136,451104
0926C00220000000,122 SCOTTSDALE DR CORAOPOLIS PA 15108,MOON,40.540341325482188,-80.257365300315726,451104
0925J00013000000,7019 WEEPING WILLOW DR CORAOPOLIS PA 15108,MOON,40.524264916004682,-80.263743867978860,451104
0925F00213000000,6014 HAWTHORN DR CORAOPOLIS PA 15108,MOON,40.525751800839913,-80.259608466459625,451104
0925F00180000000,5003 SPRUCE DR CORAOPOLIS PA 15108,MOON,40.527948971557748,-80.258846388074716,451104
0925D00090000000,430 SKYLARK DR CORAOPOLIS PA 15108,MOON,40.529655684933608,-80.249291357236018,451104
0924P00122000000,597 MOON CLINTON RD CORAOPOLIS PA 15108,FINDLAY,40.513114396513991,-80.260018184614438,451105
0917K00048000000,205 WARREN CT IMPERIAL PA 15126,FINDLAY,40.447970505580329,-80.258424367884928,452000
0917K00041000000,210 WARREN CT IMPERIAL PA 15126,FINDLAY,40.447275657865241,-80.258818715268760,452000
0917K00040000000,213 WARREN CT IMPERIAL PA 15126,FINDLAY,40.447247495376807,-80.258099213360879,452000
0917G00124000000,327 RUTH CT IMPERIAL PA 15126,FINDLAY,40.448033894491303,-80.256546639902709,452000
0917G00114000000,317 RUTH CT IMPERIAL PA 15126,FINDLAY,40.448852132237995,-80.257085226199635,452000
0917G00100000000,303 RUTH CT IMPERIAL PA 15126,FINDLAY,40.449856538289794,-80.258119818493995,452000
0917F00039000000,114 ALTA VISTA DR IMPERIAL PA 15126,FINDLAY,40.449499453489587,-80.258446827850022,452000
0917F00037000000,301 RUTH CT IMPERIAL PA 15126,FINDLAY,40.449931044429292,-80.258366164718637,452000
0917B00005000000,135 ALTA VISTA DR IMPERIAL PA 15126,FINDLAY,40.451147287813143,-80.258106914925236,452000
0916P00250000000,2101 CANTERBURY DR IMPERIAL PA 15126,NORTH FAYETTE,40.434050760283561,-80.260230363251054,564000
0916P00203000000,2852 CANTERBURY DR IMPERIAL PA 15126,NORTH FAYETTE,40.435265110646377,-80.259653084909090,564000
0916P00142000000,1103 CANTERBURY DR IMPERIAL PA 15126,NORTH FAYETTE,40.435583704098391,-80.261854458582604,564000
0916P00126000000,1307 CANTERBURY DR IMPERIAL PA 15126,NORTH FAYETTE,40.434882556433855,-80.261706055335992,564000
0913R00020000000,113 COVE CT MC DONALD PA 15057,NORTH FAYETTE,40.404469340463599,-80.257414338384692,564000
0913M00026000000,114 SOVEREIGN CT MC DONALD PA 15057,NORTH FAYETTE,40.408984275757525,-80.250111745852891,564000
0913M00016000000,104 SOVEREIGN CT MC DONALD PA 15057,NORTH FAYETTE,40.407924132086848,-80.250408091047973,564000
0913M00014000000,102 SOVEREIGN CT MC DONALD PA 15057,NORTH FAYETTE,40.407701288162606,-80.250469443541391,564000
0913M00010000000,303 REGENT CT MC DONALD PA 15057,NORTH FAYETTE,40.406913441243013,-80.249713984604014,564000
0913H00004000000,118 SOVEREIGN CT MC DONALD PA 15057,NORTH FAYETTE,40.409407888890222,-80.249992960445752,564000
0912B00032000000,301 COMMODORE DR MC DONALD PA 15057,NORTH FAYETTE,40.403622181417433,-80.261646268325620,564000
0889A00025000000,196 BLUESTONE DR BETHEL PARK PA 15102,BETHEL PARK,40.297311018787262,-80.065130428303434,475304
0888E00002000000,1111 RIAL DR BETHEL PARK PA 15102,BETHEL PARK,40.292874367359936,-80.046013030637937,475304
0887S00119000000,2014 PINNACLE WAY SOUTH PARK PA 15129,SOUTH PARK,40.289623224759289,-80.015567004659388,490002
0887S00116000000,2005 PINNACLE WAY SOUTH PARK PA 15129,SOUTH PARK,40.290023244737796,-80.016480844038114,490002
0887S00115000000,2010 PINNACLE WAY SOUTH PARK PA 15129,SOUTH PARK,40.289578705101590,-80.015941364977195,490002
0887S00113000000,2008 PINNACLE WAY SOUTH PARK PA 15129,SOUTH PARK,40.289555943385672,-80.016128558337769,490002
0887S00112000000,2001 PINNACLE WAY SOUTH PARK PA 15129,SOUTH PARK,40.289938154990892,-80.016916241559514,490002
0887S00109000000,2004 PINNACLE WAY SOUTH PARK PA 15129,SOUTH PARK,40.289502138773152,-80.016502472073981,490002
0887S00107000000,1007 PEAK DR SOUTH PARK PA 15129,SOUTH PARK,40.289544663198988,-80.016886673837561,490002
0887S00106000000,1004 PEAK DR SOUTH PARK PA 15129,SOUTH PARK,40.289654095525137,-80.017944189566862,490002
0887S00096000000,5025 SUMMIT DR SOUTH PARK PA 15129,SOUTH PARK,40.289224806191221,-80.018034338979575,490002
0887S00082000000,5028 SUMMIT DR SOUTH PARK PA 15129,SOUTH PARK,40.288653712923413,-80.018117655727664,490002
0887S00070000000,5016 SUMMIT DR SOUTH PARK PA 15129,SOUTH PARK,40.288658802908429,-80.016977908958438,490002
0887S00068000000,5014 SUMMIT DR SOUTH PARK PA 15129,SOUTH PARK,40.288668695023027,-80.016799110007298,490002
0887S00048000000,4124 TERRACE AVE SOUTH PARK PA 15129,SOUTH PARK,40.288752341572192,-80.020794002136867,490002
0887R00235000000,4110 TERRACE AVE SOUTH PARK PA 15129,SOUTH PARK,40.288926914234928,-80.021452789674115,490002
0887R00152000000,6346 PLEASANT ST SOUTH PARK PA 15129,SOUTH PARK,40.289539168953404,-80.023193708456020,490002
0887M00155000000,4304 ZENITH LN SOUTH PARK PA 15129,SOUTH PARK,40.290313156113513,-80.019925645808854,490002
0887M00113000000,4112 HIGH ST SOUTH PARK PA 15129,SOUTH PARK,40.290493086639906,-80.020551391713838,490002
0887J00079070600,706 BERRINGTON CT BETHEL PARK PA 15102,BETHEL PARK,40.292717539393209,-80.033338632404508,475304
0886N00094000000,4019 CROWN DR SOUTH PARK PA 15129,SOUTH PARK,40.288741011247566,-80.014443258270376,490002
0886N00087000000,4031 CROWN DR SOUTH PARK PA 15129,SOUTH PARK,40.288927127038804,-80.013849029632425,490002
0886N00040000000,4058 CROWN DR SOUTH PARK PA 15129,SOUTH PARK,40.288812925087882,-80.012643263011512,490002
0886N00032000000,4012 CROWN DR SOUTH PARK PA 15129,SOUTH PARK,40.288207725677189,-80.014763583930900,490002
0886N00025000000,4017 CROWN DR SOUTH PARK PA 15129,SOUTH PARK,40.288734284676714,-80.014551511285347,490002
0886L00080000000,2650 OAKHILL DR SOUTH PARK PA 15129,SOUTH PARK,40.291299727840553,-80.007169586832660,490002
0886J00244000000,2031 PINNACLE WAY SOUTH PARK PA 15129,SOUTH PARK,40.290847285424960,-80.013753401747337,490002
0886J00128000000,2015 PINNACLE WAY SOUTH PARK PA 15129,SOUTH PARK,40.290193761042140,-80.015541571764928,490002
0886J00124000000,2011 PINNACLE WAY SOUTH PARK PA 15129,SOUTH PARK,40.290150968434155,-80.015918719336085,490002
0886J00122000000,2009 PINNACLE WAY SOUTH PARK PA 15129,SOUTH PARK,40.290106604070608,-80.016097296574799,490002
0885S00052000000,1903 RIGGS RD SOUTH PARK PA 15129,SOUTH PARK,40.289736428316161,-79.986791111894888,490004
0885R00010000000,3103 TRAPPER DR SOUTH PARK PA 15129,SOUTH PARK,40.289785126808930,-79.988525945390677,490004
0885G00222000000,1885 WALLACE RD SOUTH PARK PA 15129,SOUTH PARK,40.294314568588433,-79.989134508469476,490004
0885D00175000000,2885 AMY DR SOUTH PARK PA 15129,SOUTH PARK,40.296920150230456,-79.986712073068503,490004
0885A01446000000,1446 GREENBRIAR CT SOUTH PARK PA 15129,SOUTH PARK,40.297265540780778,-79.996944682432940,490002
0884P00103000000,1985 HERTFORD DR SOUTH PARK PA 15129,SOUTH PARK,40.287917770438298,-79.979042308374389,490004
0884N00228000000,100 MARIAS WAY SOUTH PARK PA 15129,SOUTH PARK,40.289089457815344,-79.980559811279690,490004
0884N00203000000,105 MARIAS WAY SOUTH PARK PA 15129,SOUTH PARK,40.288495227355817,-79.980940792450397,490004
0884D00115000000,159 WASHINGTON DR CLAIRTON PA 15025,JEFFERSON HILLS,40.296173086595147,-79.967866069445122,491101
0884D00112000000,148 WASHINGTON DR CLAIRTON PA 15025,JEFFERSON HILLS,40.296716774225423,-79.966914142706685,491101
0882S00016000000,320 STETTLER DR CLAIRTON PA 15025,JEFFERSON HILLS,40.288754915942086,-79.934399882622074,491101
0882S00006000000,317 STETTLER DR CLAIRTON PA 15025,JEFFERSON HILLS,40.289522789725517,-79.933839142326775,491101
0882M00043000000,208 STETTLER DR CLAIRTON PA 15025,JEFFERSON HILLS,40.291881086606153,-79.935453587226988,491101
0882D00038000000,112 TABER DR CLAIRTON PA 15025,JEFFERSON HILLS,40.296714347660966,-79.935871777380612,491101
0881R00041000000,0 CHERRY ST CLAIRTON PA 15025,JEFFERSON HILLS,40.289471185158753,-79.924779887290242,491101
0881E00008000000,1427 COUNCIL PL CLAIRTON PA 15025,JEFFERSON HILLS,40.293795721314545,-79.931089682025132,491101
0881C00290000000,215 SHELLBARK ST CLAIRTON PA 15025,JEFFERSON HILLS,40.295804915586565,-79.923152126716460,491101
0881B00158000000,202 VINE ST CLAIRTON PA 15025,JEFFERSON HILLS,40.295217846596699,-79.925445712841821,491101
0879N00035000500,3505 MILES AVE CLAIRTON PA 15025,2ND WARD - CLAIRTON,40.287776569732067,-79.896760110873331,492900
0879K00239000000,908 WORTHINGTON AVE CLAIRTON PA 15025,2ND WARD - CLAIRTON,40.291823366311078,-79.891963802067792,492900
0875M00001000000,115 PARKER DR MC KEESPORT PA 15135,ELIZABETH TWP,40.292001673829901,-79.819444276477185,496200
0875H00072000000,128 MOUNT VERNON DR MC KEESPORT PA 15135,ELIZABETH TWP,40.293890871515835,-79.817081027961578,496200
0875D00002000000,119 MOUNT VERNON DR MC KEESPORT PA 15135,ELIZABETH TWP,40.294940487831937,-79.816468503235825,496200
0874K00028000000,111 LARCHFIELD DR MC KEESPORT PA 15135,ELIZABETH TWP,40.290158226008870,-79.811199579584894,496200
0861C00204000000,190 KELVINGTON DR MONROEVILLE PA 15146,MONROEVILLE,40.394739388503694,-79.756143950725317,521402
0860K00090000000,317 PENN LEAR CT MONROEVILLE PA 15146,MONROEVILLE,40.399108651611130,-79.758434340804740,521402
0860H00100000000,2079 RAMSEY RD MONROEVILLE PA 15146,MONROEVILLE,40.400235551229542,-79.749735988391066,521402
0859M00012000000,338 COLEMAN DR MONROEVILLE PA 15146,MONROEVILLE,40.407202276743327,-79.754206680987807,521402
0859H00042000000,2221 RAMSEY RD MONROEVILLE PA 15146,MONROEVILLE,40.409567583944359,-79.750109986280862,521402
0859D00241000000,2317 HAYMAKER RD MONROEVILLE PA 15146,MONROEVILLE,40.412309368536413,-79.753156682963876,521301
0859D00192000000,110 OLD SUFFOLK DR MONROEVILLE PA 15146,MONROEVILLE,40.412206367598422,-79.751330612749399,521402
0859D00143000000,107 OLD SUFFOLK DR MONROEVILLE PA 15146,MONROEVILLE,40.412828624786883,-79.751399029214895,521402
0858M00063000000,1246 CATALINA DR MONROEVILLE PA 15146,MONROEVILLE,40.417725057165860,-79.749955377528266,521402
0858H00222000000,1177 SAINT VINCENT DR MONROEVILLE PA 15146,MONROEVILLE,40.420374796268362,-79.752465244307331,521301
0858D00016000000,1181 BUCKNELL DR MONROEVILLE PA 15146,MONROEVILLE,40.421648164560565,-79.751578558797448,521301
0858D00012000000,1184 BUCKNELL DR MONROEVILLE PA 15146,MONROEVILLE,40.421314799267932,-79.751002742067513,521301
0857N00091000000,0 TILBROOK RD MONROEVILLE PA 15146,MONROEVILLE,40.425774983985569,-79.764284611272515,521301
0857N00004000000,512 PINOAK DR MONROEVILLE PA 15146,MONROEVILLE,40.424760958253586,-79.763542174902852,521301
0856F00307000000,220 KENMAR DR MONROEVILLE PA 15146,MONROEVILLE,40.439987984274673,-79.765644699514411,521301
0856B00128000000,254 CLOVER DR MONROEVILLE PA 15146,MONROEVILLE,40.442162585203519,-79.758794550709197,521500
0855K00395000000,437 BEATTY RD MONROEVILLE PA 15146,MONROEVILLE,40.448029161878637,-79.762143603897442,521500
0854N00277000000,423 COLONIAL DR MONROEVILLE PA 15146,MONROEVILLE,40.453660664975573,-79.766252239175643,521100
0854N00050000000,417 FRANKLIN HEIGHTS DR MONROEVILLE PA 15146,MONROEVILLE,40.453934523757574,-79.762987356618098,521100
0853C00003000000,151 FORT PITT BLVD PITTSBURGH PA 15222,PLUM,40.470521897919170,-79.757892964253145,526202
0852R00372000000,857 CENTER RD PITTSBURGH PA 15239,PLUM,40.473998095391259,-79.757506350897643,526202
0852P00251000000,0 OBLOCK DR PITTSBURGH PA 15239,PLUM,40.473895508518105,-79.760876960294240,526202
0852H00106000000,7998 SALTSBURG RD PITTSBURGH PA 15239,PLUM,40.478211100412622,-79.752275392196566,526202
0852D00149000000,503 BEECH RD PITTSBURGH PA 15239,PLUM,40.481006648489902,-79.750761516341868,526201
0851R00087000000,0 FINLEY RD PITTSBURGH PA 15239,PLUM,40.482976475872682,-79.754817877547879,526201
0851C00014000000,168 VALLEY FIELDS DR PITTSBURGH PA 15239,PLUM,40.490422828787466,-79.757393336969926,526201
0851A00072000000,320 JACKSON RD PITTSBURGH PA 15239,PLUM,40.489741284730876,-79.765194061998230,526201
0848B00209000000,7085 LEECHBURG RD NEW KENSINGTON PA 15068,PLUM,40.519287671534791,-79.760211379822636,526101
0846L00307000000,0 LOGANS FERRY RD NEW KENSINGTON PA 15068,PLUM,40.533969459739176,-79.756834804679826,526101
0840M00198000000,0 MURRAYHILL RD TARENTUM PA 15084,EAST DEER,40.572905712219544,-79.784845513104216,404000
0836N00090000000,122 REPUBLIC AVE INDIANOLA PA 15051,INDIANA,40.571038596532425,-79.865953226799974,415001
0835A00110000000,717 HEATHERGATE DR PITTSBURGH PA 15238,INDIANA,40.579329923588915,-79.880628605942363,415001
0834D00165000000,106 WEBER DR PITTSBURGH PA 15238,INDIANA,40.579260269367488,-79.883943469295033,415001
0832N00097000000,3030 STURBRIDGE CT ALLISON PARK PA 15101,HAMPTON,40.571314422049710,-79.930124982228364,414200
0832J00050000000,3161 CANTERBURY DR ALLISON PARK PA 15101,HAMPTON,40.573179905970974,-79.932655073736896,414200
0832F00077000000,4283 MIDDLE RD ALLISON PARK PA 15101,HAMPTON,40.575262480801854,-79.926033385848115,414200
0832E00149000000,3187 HENRICH FARM LN ALLISON PARK PA 15101,HAMPTON,40.575537645299370,-79.930749132626630,414200
0831M00070000000,3130 CANTERBURY DR ALLISON PARK PA 15101,HAMPTON,40.572577972477433,-79.934844154143150,414200
0831M00060000000,3092 FAIRFIELD CT ALLISON PARK PA 15101,HAMPTON,40.572683497032784,-79.936736209953409,414200
0831K00047000000,4245 OLD NEW ENGLAND RD ALLISON PARK PA 15101,HAMPTON,40.572922633399905,-79.942430461920537,414200
0831A00154000000,4370 KILBERT DR ALLISON PARK PA 15101,HAMPTON,40.578691527720750,-79.946516139643848,414200
0830H00099000000,4357 ROSANNA DR ALLISON PARK PA 15101,HAMPTON,40.576376926979734,-79.951272006434706,414200
0829P00010000000,2360 SADDLE DR ALLISON PARK PA 15101,HAMPTON,40.569384297495525,-79.975392054341484,414102
0829N00063000000,4237 HAUT BRION CT ALLISON PARK PA 15101,HAMPTON,40.571331795586921,-79.982869483671664,414102
0829N00029000000,4246 HERMITAGE CT ALLISON PARK PA 15101,HAMPTON,40.570246216627929,-79.981144011674516,414102
0829N00011000000,4228 MONTRACHET CT ALLISON PARK PA 15101,HAMPTON,40.570548324100997,-79.982466042033721,414102
0829L00002000000,611 MEADE DR CORAOPOLIS PA 15108,MOON,40.535734683215068,-80.240548521158829,451104
0828S00144000000,4204 CHEVAL BLANC CT ALLISON PARK PA 15101,HAMPTON,40.569458535285293,-79.984332426989241,414102
0828L00331000000,1919 ARDEN DR ALLISON PARK PA 15101,MCCANDLESS,40.573369920325106,-79.991274798503653,413500
0828K00188000000,1892 ARDEN DR ALLISON PARK PA 15101,MCCANDLESS,40.572413152794169,-79.992602861171306,413500
0828J00236000000,1799 SAMPLE RD ALLISON PARK PA 15101,MCCANDLESS,40.573195704586603,-79.998150532893547,413500
0828J00125000000,9195 COLLINGTON SQ ALLISON PARK PA 15101,MCCANDLESS,40.573234964186291,-79.999762986127763,413500
0828J00109000000,9121 COLLINGTON SQ ALLISON PARK PA 15101,MCCANDLESS,40.572280783966825,-79.998732425832344,413500
0828G00231000000,9368 NORTHGATE DR ALLISON PARK PA 15101,MCCANDLESS,40.576302576543682,-79.990244924267941,413500
0828F00307000000,9306 CHASE PL ALLISON PARK PA 15101,MCCANDLESS,40.574973372706410,-79.994783446617731,413500
0828E00289000000,9330 PEEBLES RD ALLISON PARK PA 15101,MCCANDLESS,40.575390165758442,-79.998399173673747,413500
0828B00300000000,1306 WENDY VIEW DR ALLISON PARK PA 15101,MCCANDLESS,40.578403565798368,-79.995259195549949,413500
0827E00254000000,9413 BABCOCK BLVD ALLISON PARK PA 15101,MCCANDLESS,40.576973484210335,-80.013469178840168,413500
0826R00005000000,805 DOVE CT PITTSBURGH PA 15237,MCCANDLESS,40.571709067205290,-80.021440721839568,413500
0826M00018000000,1020 WHITLEY DR PITTSBURGH PA 15237,MCCANDLESS,40.574209847952176,-80.017011505500477,413500
0826L00192000000,800 HEATHER PL PITTSBURGH PA 15237,MCCANDLESS,40.573880923059562,-80.022920799494543,413500
0826J00289000000,9101 SAGINAW DR PITTSBURGH PA 15237,MCCANDLESS,40.572192777626853,-80.032262174036589,413201
0826J00151000000,9223 PANNIER RD PITTSBURGH PA 15237,MCCANDLESS,40.574572268259573,-80.030696555013705,413201
0826G00352000000,852 E ARCADIA DR PITTSBURGH PA 15237,MCCANDLESS,40.576644234162629,-80.021323282021200,413500
0826D00231000000,9515 PARK EDGE DR ALLISON PARK PA 15101,MCCANDLESS,40.578606688612687,-80.018115207362428,413500
0826A00015000000,9375 CROMWELL DR PITTSBURGH PA 15237,MCCANDLESS,40.577031225200422,-80.029255867800217,413201
0825R00243000000,201 MOHICAN AVE PITTSBURGH PA 15237,MCCANDLESS,40.571237726097934,-80.040121207367633,413201
0825P00087000000,336 CHICKASAW AVE PITTSBURGH PA 15237,MCCANDLESS,40.570103305551086,-80.043512974639185,413201
0825M00348000000,9140 PERRY HWY PITTSBURGH PA 15237,MCCANDLESS,40.572839534474234,-80.036584817955841,413201
0825L00342000000,9200 MARY AVE PITTSBURGH PA 15237,MCCANDLESS,40.572851014769370,-80.041086703666664,413201
0825L00170000000,9231 OLD PERRY HWY PITTSBURGH PA 15237,MCCANDLESS,40.573580277702710,-80.037705694438429,413201
0825J00354000000,9308 ALMAR PL PITTSBURGH PA 15237,MCCANDLESS,40.574317337018982,-80.046543342963545,413201
0825J00291000000,533 OLIVE ST PITTSBURGH PA 15237,MCCANDLESS,40.573311261082324,-80.047541468647850,413201
0825G00346000000,200 MORELAND RD PITTSBURGH PA 15237,MCCANDLESS,40.576859646758592,-80.041427186389512,413201
0825F00199000000,279 MORELAND RD PITTSBURGH PA 15237,MCCANDLESS,40.575840946368309,-80.044246169727543,413201
0825E00190000000,9329 DORAL DR PITTSBURGH PA 15237,MCCANDLESS,40.575539144814037,-80.048143114469454,413201
0825B00307000000,0 ALMAR DR PITTSBURGH PA 15237,MCCANDLESS,40.578547953004858,-80.044479287721131,413201
0825B00305000000,9510 ALMAR PL PITTSBURGH PA 15237,MCCANDLESS,40.578540528431319,-80.044976147828223,413201
0825A00276000000,461 ALMAR DR PITTSBURGH PA 15237,MCCANDLESS,40.578268388591354,-80.047734705059639,413201
0824R00094000000,9063 WILLOUGHBY RD PITTSBURGH PA 15237,MCCANDLESS,40.570172380252423,-80.056277126211256,413202
0824F00385000000,9203 MARYMONT DR PITTSBURGH PA 15237,MCCANDLESS,40.577480791066968,-80.060782996980933,413202
0824A00229000000,1109 SOUTHVALE RD PITTSBURGH PA 15237,MCCANDLESS,40.578988155090258,-80.063216955454607,413202
0824A00107000000,9384 HILLIARD RD PITTSBURGH PA 15237,MCCANDLESS,40.577897631585124,-80.064345218678739,413202
0823R00126000000,2229 ROCHESTER RD PITTSBURGH PA 15237,FRANKLIN PARK,40.570953829453160,-80.071846629447379,412002
0823P00069000000,2243 KINGRIDGE RD PITTSBURGH PA 15237,FRANKLIN PARK,40.570519240300385,-80.075852001824799,412002
0823N00076000000,1640 OAKLEAF LN PITTSBURGH PA 15237,FRANKLIN PARK,40.572106969419188,-80.080036910466433,412002
0823N00016000000,1600 DORAL CT PITTSBURGH PA 15237,FRANKLIN PARK,40.569984643464984,-80.081229483831734,412002
0823J00022000000,1615 OAKLEAF LN PITTSBURGH PA 15237,FRANKLIN PARK,40.574620044776843,-80.080671196134901,412002
0822H00108000000,1522 BRIMFIELD DR SEWICKLEY PA 15143,FRANKLIN PARK,40.575304639818519,-80.084807835357111,412002
0822B00004000000,1912 KIMBERLY CT SEWICKLEY PA 15143,FRANKLIN PARK,40.578839381777406,-80.092391007449379,412002
0821P00085000000,1018 BLACKBERRY DR SEWICKLEY PA 15143,OHIO,40.571476924388818,-80.109739959472194,437000
0821N00016000000,115 VILLAGE CT SEWICKLEY PA 15143,OHIO,40.570075389343863,-80.112576813011771,437000
0821N00008000000,109 SPRINGFIELD DR SEWICKLEY PA 15143,OHIO,40.571649656786171,-80.112434313060504,437000
0821D00037000000,2317 MCDEVITT RD SEWICKLEY PA 15143,FRANKLIN PARK,40.576783834476657,-80.101384165372394,412004
0820R00054000000,176 SWEETWATER DR SEWICKLEY PA 15143,SEWICKLEY HILLS,40.571399598632965,-80.121739065408036,563300
0820M00028000000,153 SWEETWATER DR SEWICKLEY PA 15143,SEWICKLEY HILLS,40.572428324604530,-80.120551453053508,563300
0820L00022000000,137 SWEETWATER DR SEWICKLEY PA 15143,SEWICKLEY HILLS,40.573076884103131,-80.120970069761995,563300
0816J00050000000,206 CHAUCER CT S SEWICKLEY PA 15143,LEET,40.573991160885356,-80.199450337110079,447000
0816A00334000000,250 SKRABUT RD SEWICKLEY PA 15143,LEET,40.577755808968476,-80.196863407061301,447000
0816A00326000000,0 SKRABUT RD SEWICKLEY PA 15143,LEET,40.577422521054771,-80.196525450378090,447000
0815S00184000000,220 CAMP MEETING RD SEWICKLEY PA 15143,LEET,40.569416933261344,-80.200154346356996,447000
0815S00182000000,220 CAMP MEETING RD SEWICKLEY PA 15143,LEET,40.570696926484551,-80.201070423381239,447000
0815N00065000000,189 BEAVER ST LEETSDALE PA 15056,LEETSDALE,40.570431001710894,-80.215455552037625,448000
0815K00343000000,153 PILGRIM DR SEWICKLEY PA 15143,LEET,40.572060508686079,-80.209651712976708,447000
0815C00268000000,20 WATSON ST SEWICKLEY PA 15143,LEET,40.578294158193501,-80.204796749732495,447000
0812S00286000000,924 HARPER RD CRESCENT PA 15046,CRESCENT,40.562293038906887,-80.235224380432697,449000
0811C00058000000,1043 CREST DR CRESCENT PA 15046,CRESCENT,40.558912655448175,-80.240075063527158,449000
0811B00130000000,1033 OLD HARPER RD CRESCENT PA 15046,CRESCENT,40.559969603812199,-80.243804904107719,449000
0810M00040000000,1102 HARROW HILL CT CORAOPOLIS PA 15108,MOON,40.545075121390262,-80.233579780629199,451101
0809P00074000000,108 LOCHINVER DR CORAOPOLIS PA 15108,MOON,40.532807349635647,-80.242821951704698,451104
0808N00258000000,1003 AUTUMN WOODS DR CORAOPOLIS PA 15108,MOON,40.523123038776994,-80.249102471259661,451105
0808L00055000000,513 EMERALD DR CORAOPOLIS PA 15108,MOON,40.525350066189169,-80.237529464403224,451105
0808L00015000000,612 ABERDEEN CT CORAOPOLIS PA 15108,MOON,40.523379823165506,-80.238607865658693,451105
0807M00105000000,124 FOXWOOD RD CORAOPOLIS PA 15108,MOON,40.514834564282111,-80.233776408067314,451105
0807E00052000000,414 BLUE RIDGE DR CORAOPOLIS PA 15108,MOON,40.517934589124515,-80.248532557348753,451105
0801D00361000000,97 ENLOW RD IMPERIAL PA 15126,FINDLAY,40.460436358077807,-80.236610203417584,452000
0801A00331000000,821 PONDEROSA DR IMPERIAL PA 15126,FINDLAY,40.462648739438798,-80.245648685546072,452000
0800B00116000000,101 ELM ST IMPERIAL PA 15126,FINDLAY,40.451158457323331,-80.244025591508631,452000
0798P00025000000,131 VILLAGE CIR OAKDALE PA 15071,NORTH FAYETTE,40.424945378837172,-80.242319782456576,564000
0798H00028000000,154 SADDLE RIDGE DR OAKDALE PA 15071,NORTH FAYETTE,40.429554734664620,-80.235442572830834,564000
0798G00090000000,174 SADDLE RIDGE DR OAKDALE PA 15071,NORTH FAYETTE,40.430799655991500,-80.238180665304441,564000
0798G00082000000,105 DERBY LN OAKDALE PA 15071,NORTH FAYETTE,40.429825307840581,-80.237591958075541,564000
0798G00063000000,187 HORSESHOE DR OAKDALE PA 15071,NORTH FAYETTE,40.430263599059202,-80.238477180778673,564000
0798G00056000000,164 HORSESHOE DR OAKDALE PA 15071,NORTH FAYETTE,40.429788833559968,-80.242233849986278,564000
0798F00030000000,102 CALUMET CT OAKDALE PA 15071,NORTH FAYETTE,40.430869321672368,-80.242262506809027,564000
0797D00028000000,101 SPRINGHILL DR OAKDALE PA 15071,NORTH FAYETTE,40.422393114165352,-80.233884569674103,564000
0796S00005000000,575 NORTH BRANCH RD MC DONALD PA 15057,NORTH FAYETTE,40.405837776660128,-80.231913111613082,564000
0796J00058000000,115 SOVEREIGN CT MC DONALD PA 15057,NORTH FAYETTE,40.408832241100967,-80.249500976635545,564000
0796J00056000000,117 SOVEREIGN CT MC DONALD PA 15057,NORTH FAYETTE,40.409044041582085,-80.249442618489596,564000
0796J00052000000,307 REGENT CT MC DONALD PA 15057,NORTH FAYETTE,40.407259224118491,-80.249120036367643,564000
0796J00050000000,309 REGENT CT MC DONALD PA 15057,NORTH FAYETTE,40.407434507008183,-80.248917515504516,564000
0796J00038000000,151 FORT PITT BLVD PITTSBURGH PA 15222,NORTH FAYETTE,40.407848777439213,-80.247342882146640,564000
0796J00036000000,511 ROYAL CT MC DONALD PA 15057,NORTH FAYETTE,40.407959063352983,-80.247028478576993,564000
0796J00026000000,504 ROYAL CT MC DONALD PA 15057,NORTH FAYETTE,40.408300140938898,-80.248107897307563,564000
0796J00020000000,319 REGENT CT MC DONALD PA 15057,NORTH FAYETTE,40.408727457996925,-80.248269270183187,564000
0796J00016000000,318 REGENT CT MC DONALD PA 15057,NORTH FAYETTE,40.408966068649612,-80.248948974883277,564000
0796J00006000000,308 REGENT CT MC DONALD PA 15057,NORTH FAYETTE,40.407955009644567,-80.249319332739702,564000
0796J00004000000,306 REGENT CT MC DONALD PA 15057,NORTH FAYETTE,40.407781525812794,-80.249450737602686,564000
0796E00018000000,122 SOVEREIGN CT MC DONALD PA 15057,NORTH FAYETTE,40.409833654828525,-80.249876176898937,564000
