parcelid,address,muni,lat,lon,tract
0231L00212000000,2504 PARK HILL DR PITTSBURGH PA 15221,13TH WARD - PITTSBURGH,40.456145573266070,-79.873123303980009,130600
0231L00192000000,2516 PARK HILL DR PITTSBURGH PA 15221,13TH WARD - PITTSBURGH,40.455980449222238,-79.872787561812459,130600
0231L00184000000,2540 PARK HILL DR PITTSBURGH PA 15221,13TH WARD - PITTSBURGH,40.456125121282128,-79.872492425288314,130600
0231L00180000000,2544 PARK HILL DR PITTSBURGH PA 15221,13TH WARD - PITTSBURGH,40.456174326464115,-79.872370600340417,130600
0231L00160000000,2563 PARK HILL DR PITTSBURGH PA 15221,13TH WARD - PITTSBURGH,40.456740034632624,-79.872060265880705,130600
0231L00120000000,2531 PARK HILL DR PITTSBURGH PA 15221,13TH WARD - PITTSBURGH,40.456854968346519,-79.872542041615432,130600
0231L00106000000,2511 PARK HILL DR PITTSBURGH PA 15221,13TH WARD - PITTSBURGH,40.456555689981208,-79.873157066319550,130600
0231L00096000000,2501 PARK HILL DR PITTSBURGH PA 15221,13TH WARD - PITTSBURGH,40.456411624079450,-79.873462176784372,130600
0231L00084000000,2429 PARK HILL DR PITTSBURGH PA 15221,13TH WARD - PITTSBURGH,40.456210621694936,-79.873797270997812,130600
0231L00034000000,119 WHITE PINE PL PITTSBURGH PA 15221,13TH WARD - PITTSBURGH,40.455198270200874,-79.873850913821499,130600
0231C00396000000,67 PRIDE RD PITTSBURGH PA 15235,PENN HILLS,40.462534122860596,-79.873824941909945,523100
0230S00029000000,54 OVERBROOK RD PITTSBURGH PA 15235,PENN HILLS,40.462580161193273,-79.867420864154610,523100
0230M00235000000,7865 MOUNT CARMEL RD VERONA PA 15147,PENN HILLS,40.467432238367500,-79.870383135194942,523100
0230M00203000000,7914 MOUNT CARMEL RD VERONA PA 15147,PENN HILLS,40.466841016896211,-79.869617467190821,523100
0230K00397000000,7586 MOUNT CARMEL RD VERONA PA 15147,PENN HILLS,40.465198615472076,-79.878586047784523,523100
0230H00026000000,7891 MARK DR VERONA PA 15147,PENN HILLS,40.469770177724470,-79.868992523020893,523100
0230G00297000000,7835 MARK DR VERONA PA 15147,PENN HILLS,40.468742148750174,-79.873161398811575,523100
0229S00147000000,250 BRAMBLE ST VERONA PA 15147,PENN HILLS,40.474626997154566,-79.867756991371024,523100
0229L00032000000,8034 CHASKE ST VERONA PA 15147,PENN HILLS,40.475819303493608,-79.870946653637844,523100
0228J00391000000,111 CHAPEL HARBOR DR PITTSBURGH PA 15238,O''HARA,40.486116798829400,-79.879467375124264,421100
0228J00305000000,209 PARK SQUARE LN PITTSBURGH PA 15238,O''HARA,40.485643671085207,-79.880402104318634,421100
0228J00271000000,226 PARK SQUARE LN PITTSBURGH PA 15238,O''HARA,40.485958770639478,-79.881077597086090,421100
0228J00210030800,100 VISTA CIR PITTSBURGH PA 15238,O''HARA,40.486213248859187,-79.878288181619183,421100
0228B00096000000,110 N OAK HILL RD PITTSBURGH PA 15238,O''HARA,40.490142656600987,-79.876690504319413,421100
0228B00068000000,119 N OAK HILL RD PITTSBURGH PA 15238,O''HARA,40.489836742830875,-79.878246142238297,421100
0228A00030000000,216 FOX CHAPEL RD PITTSBURGH PA 15238,O''HARA,40.491402368758251,-79.881429997532507,421100
0227N00095051200,300 FOX CHAPEL RD PITTSBURGH PA 15238,O''HARA,40.492242918786637,-79.879713982151699,421100
0227N00095021800,300 FOX CHAPEL RD PITTSBURGH PA 15238,O''HARA,40.492843378789516,-79.879912268627777,421100
0226J00001000000,340 FOX CHAPEL RD PITTSBURGH PA 15238,FOX CHAPEL,40.504877778114938,-79.880509392939004,422000
0226B00068000000,128 SOUTH DR PITTSBURGH PA 15238,FOX CHAPEL,40.509908780673975,-79.875556592372533,422000
0225R00040000000,3 LATOURELLE LN PITTSBURGH PA 15215,FOX CHAPEL,40.501455063089495,-79.890608052721987,422000
0225J00012000000,13 JAMES ROSS PL PITTSBURGH PA 15215,FOX CHAPEL,40.503487508436876,-79.898502821599621,422000
0225H00110000000,114 HICKORY HILL RD PITTSBURGH PA 15238,FOX CHAPEL,40.507486850516592,-79.883954317515546,422000
0225A00130000000,120 MARVELWOOD PL PITTSBURGH PA 15215,FOX CHAPEL,40.509525189810972,-79.897256385807083,422000
0224R00128000000,114 WESTCHESTER DR PITTSBURGH PA 15215,O''HARA,40.503553499669863,-79.905592830952486,421200
0223R00314000000,6 MARY ST PITTSBURGH PA 15215,O''HARA,40.501319949744371,-79.922133485612676,421200
0223M00074000000,48 COLLINWOOD DR PITTSBURGH PA 15215,O''HARA,40.505373475306605,-79.920220192236229,421200
0223G00060000000,25 COLLINWOOD DR PITTSBURGH PA 15215,O''HARA,40.508079614802661,-79.922572276355382,421200
0223B00031000000,0 GEORGIAN PL PITTSBURGH PA 15215,O''HARA,40.508564284094362,-79.927522494501360,421200
0222R00142000000,552 FOUNDRY ST PITTSBURGH PA 15215,SHALER,40.503325625270485,-79.937790822650314,426700
0222E00004000000,8 FISCHER AVE PITTSBURGH PA 15223,ETNA,40.507835556419586,-79.949457362774623,425000
0221R00224000000,45 GREELEY AVE PITTSBURGH PA 15223,ETNA,40.502436696291753,-79.955772257986482,425000
0221M00259000000,20 VILSACK ST PITTSBURGH PA 15223,ETNA,40.504966579668256,-79.950828145719470,425000
0221C00163000000,406 LOUANN ST PITTSBURGH PA 15223,SHALER,40.510685680214337,-79.957762457181417,426400
0220M00014000000,214 VERNA DR PITTSBURGH PA 15209,SHALER,40.503757336594738,-79.968497385602035,427200
0220J00176000000,177 MARY AVE PITTSBURGH PA 15209,SHALER,40.504390971192791,-79.981499899197345,427100
0219S00079000000,212 POPLAR DR PITTSBURGH PA 15209,SHALER,40.502936393911384,-79.984852237960226,427100
0219H00197000000,814 FOREST AVE PITTSBURGH PA 15209,SHALER,40.507062241778783,-79.983957630912627,427100
0219H00099000000,1314 GREENHILL RD EXT PITTSBURGH PA 15209,SHALER,40.507913575490669,-79.985963507875852,427100
0219G00280000000,102 ROCK RIDGE RD PITTSBURGH PA 15209,ROSS,40.507061795835348,-79.990816465622487,429100
0218R00015000000,135 EAKIN AVE PITTSBURGH PA 15214,ROSS,40.503931851704223,-80.007205455097420,429100
0217H00104000000,316 APRILMAE WAY PITTSBURGH PA 15237,ROSS,40.506812593635473,-80.018829950229488,429100
0217A00308000000,5314 PERRYSVILLE RD PITTSBURGH PA 15229,WEST VIEW,40.510618739767636,-80.028931805190879,430100
0216N00010000000,264 DAKOTA AVE PITTSBURGH PA 15202,BELLEVUE,40.501871474200961,-80.049269068031450,431400
0216D00189000000,113 PROSPECT DR PITTSBURGH PA 15229,ROSS,40.508765441346590,-80.035403858079093,429700
0215P00085000000,319 GLASER AVE PITTSBURGH PA 15202,BELLEVUE,40.503590297330014,-80.060804775525824,431400
0215N00281000000,804 CENTER AVE PITTSBURGH PA 15202,AVALON,40.501419770109123,-80.064352569297867,432300
0215N00273000000,730 CENTER AVE PITTSBURGH PA 15202,AVALON,40.501637774475142,-80.065211982009203,432300
0215N00113000000,906 CHESTER AVE PITTSBURGH PA 15202,AVALON,40.502501847008446,-80.062184671608676,432300
0215N00050000000,14 SEDALIA AVE PITTSBURGH PA 15202,AVALON,40.503225647319951,-80.064585311268502,432300
0215M00345000000,907 WELLESLEY AVE PITTSBURGH PA 15202,ROSS,40.505762765129717,-80.050904312747122,429600
0215M00139000000,906 QUAILL AVE PITTSBURGH PA 15202,ROSS,40.505114366516210,-80.049747432459668,429600
0215E00068000000,712 RIDGE AVE PITTSBURGH PA 15202,AVALON,40.507134990432981,-80.064999375981415,432300
0214P00062000000,219 ALDER DR PITTSBURGH PA 15202,BEN AVON,40.503729705364293,-80.076954261083287,434000
0214K00025000000,0 SPRUCE RUN RD PITTSBURGH PA 15202,AVALON,40.505202925784921,-80.074629661357577,432300
0214J00107000000,136 DICKSON AVE PITTSBURGH PA 15202,BEN AVON,40.504711669162113,-80.080705721908814,434000
0214J00068000000,141 RIDGE AVE PITTSBURGH PA 15202,BEN AVON,40.504851339228914,-80.080104026306870,434000
0214J00053000000,150 RIDGE AVE PITTSBURGH PA 15202,BEN AVON,40.505053135455967,-80.079345339006821,434000
0214J00030000000,210 RIDGE AVE PITTSBURGH PA 15202,BEN AVON,40.506115470573597,-80.079292123638936,434000
0214H00022000000,629 SEMPLE AVE PITTSBURGH PA 15202,AVALON,40.506367739711337,-80.067934863087402,432300
0214F00238000000,6625 CHURCH AVE PITTSBURGH PA 15202,BEN AVON,40.506571275835583,-80.076421891609954,434000
0214F00066000000,6628 CHURCH AVE PITTSBURGH PA 15202,BEN AVON,40.507198142951957,-80.076101719054137,434000
0214E00183000000,7010 FLACCUS RD PITTSBURGH PA 15202,BEN AVON,40.507216806309955,-80.081889193884706,434000
0214E00112000000,240 DICKSON AVE PITTSBURGH PA 15202,BEN AVON,40.506903564989933,-80.080570440791931,434000
0214E00082000000,6930 CHURCH AVE PITTSBURGH PA 15202,BEN AVON,40.507759411146679,-80.080249261788040,434000
0214C00160000000,28 BANBURY LN PITTSBURGH PA 15202,BEN AVON HEIGHTS,40.509675068915463,-80.073451339964123,563800
0214C00158000000,26 BANBURY LN PITTSBURGH PA 15202,BEN AVON HEIGHTS,40.509909563147133,-80.073462639908257,563800
0213H00169000000,217 DALZELL AVE PITTSBURGH PA 15202,BEN AVON,40.508309598291696,-80.086063425617397,434000
0213H00062000000,249 FOREST AVE PITTSBURGH PA 15202,BEN AVON,40.508096641721082,-80.083247090370207,434000
0213D00122000000,7221 MCCURDY PL PITTSBURGH PA 15202,BEN AVON,40.509371113615529,-80.084106375822870,434000
0213D00081000000,7400 CHURCH AVE PITTSBURGH PA 15202,BEN AVON,40.509803391216103,-80.085661921796529,434000
0213D00059000000,7432 PERRYSVILLE AVE PITTSBURGH PA 15202,BEN AVON,40.510634229336347,-80.086781642435668,434000
0213C00063000000,7536 PERRYSVILLE AVE PITTSBURGH PA 15202,BEN AVON,40.509935097056349,-80.088439847556700,434000
0213A00078014100,8179 OHIO RIVER BLVD PITTSBURGH PA 15202,EMSWORTH,40.510107469661499,-80.097027651456685,435000
0210D00065000000,115 HEMINGWAY LN CORAOPOLIS PA 15108,KENNEDY,40.499750124782139,-80.118404552958694,460001
0210D00062000000,112 HEMINGWAY LN CORAOPOLIS PA 15108,KENNEDY,40.500158988344999,-80.118002938300833,460001
0210D00054000000,104 HEMINGWAY LN CORAOPOLIS PA 15108,KENNEDY,40.499928158405240,-80.117336936452759,460001
0208N00008000000,1008 MITCHELL DR MC KEES ROCKS PA 15136,ROBINSON,40.472778563526518,-80.132183054422725,459102
0208B00163000000,133 AUGUST DR CORAOPOLIS PA 15108,ROBINSON,40.480544343212642,-80.125658078481550,459102
0207F00218000000,102 FIELD CLUB DR W MC KEES ROCKS PA 15136,ROBINSON,40.469053060488775,-80.127090441167041,459102
0206F00210000000,105 LAKEVIEW DR MC KEES ROCKS PA 15136,ROBINSON,40.458368123616978,-80.127148422313638,459102
0206B00164000000,224 LAKESIDE DR MC KEES ROCKS PA 15136,ROBINSON,40.461794275679345,-80.128823602311996,459102
0206B00109000000,132 LAKEVIEW DR MC KEES ROCKS PA 15136,ROBINSON,40.460834260005981,-80.127033305291391,459102
0205P00203000000,449 BEECH DR MC KEES ROCKS PA 15136,ROBINSON,40.444272527799392,-80.127865409199330,459201
0205N00030000000,300 MCCORMICK RD PITTSBURGH PA 15205,ROBINSON,40.444493006327299,-80.132249655808494,459201
0204F00087000000,5547 GLASS RD PITTSBURGH PA 15205,ROBINSON,40.439753659782177,-80.128473595582591,459201
0204E00233000000,122 NOTTINGHAM DR PITTSBURGH PA 15205,ROBINSON,40.439892747096103,-80.132757176895282,459201
0204E00211000000,125 NOTTINGHAM DR PITTSBURGH PA 15205,ROBINSON,40.439368801927699,-80.132022219117474,459201
0203M00095000000,5088 KEINERS LN PITTSBURGH PA 15205,ROBINSON,40.427011124122323,-80.118685470978306,459201
0202K00007000000,16 LANGER LN CARNEGIE PA 15106,COLLIER,40.417593896874422,-80.126761092829412,458002
0202E00203000000,109 CENTENNIAL DR CARNEGIE PA 15106,COLLIER,40.421176043315725,-80.131835053942922,458002
0202A00145000000,411 PATRIOT DR CARNEGIE PA 15106,COLLIER,40.423278719488231,-80.131988192519529,458002
0199R00007000000,350 WILLIAMSBURG CT PRESTO PA 15142,COLLIER,40.385677645886744,-80.124645257227243,458001
0199L00026000000,4210 MUIRFIELD CIR PRESTO PA 15142,COLLIER,40.389611942913952,-80.123493774083755,458001
0199J00015000000,7020 PINEHURST DR PRESTO PA 15142,COLLIER,40.388407059509795,-80.131643621614828,458001
0199H00034000000,8040 SHERWOOD DR PRESTO PA 15142,COLLIER,40.389860343112588,-80.117434159757963,458001
0199G00017000000,5071 CARNOUSTIE DR PRESTO PA 15142,COLLIER,40.390896685817118,-80.124719324269378,458001
0199G00011000000,6011 CARNOUSTIE CT PRESTO PA 15142,COLLIER,40.389827774982301,-80.122947095736961,458001
0199G00008000000,5020 CARNOUSTIE DR PRESTO PA 15142,COLLIER,40.390415682350955,-80.122422041541853,458001
0199F00007000000,6300 CROWN PL PRESTO PA 15142,COLLIER,40.390003557408093,-80.128286767852003,458001
0199E00020000000,3031 ANNANDALE DR PRESTO PA 15142,COLLIER,40.391347162711050,-80.129835862461050,458001
0199E00007000000,3020 ANNANDALE DR PRESTO PA 15142,COLLIER,40.391550642606447,-80.130566731350456,458001
0199B00020000000,3191 ANNANDALE DR PRESTO PA 15142,COLLIER,40.392251481341255,-80.126098824380918,458001
0198S00018000000,2040 ENGLISH TURN DR PRESTO PA 15142,COLLIER,40.376317957959138,-80.119298077595559,458001
0198M00022000000,1170 SAINT MELLION DR PRESTO PA 15142,COLLIER,40.378537415921734,-80.116583103624308,458001
0198D00007000000,1065 SAINT MELLION DR PRESTO PA 15142,COLLIER,40.382813826225352,-80.120058572622725,458001
0198A00009000000,0 DEER HOLLOW RD RUSSELLTON PA 15076,COLLIER,40.382193908442957,-80.131494985041428,458001
0197P00325000000,1291 NEWBURY HIGHLAND BRIDGEVILLE PA 15017,SOUTH FAYETTE,40.367296779056574,-80.128534375670029,456001
0197P00321000000,1287 NEWBURY HIGHLAND BRIDGEVILLE PA 15017,SOUTH FAYETTE,40.367316245217182,-80.128817637129799,456001
0197N00307000000,1273 NEWBURY HIGHLAND BRIDGEVILLE PA 15017,SOUTH FAYETTE,40.367475874369482,-80.130131229429779,456001
0197N00145000000,1266 NEWBURY HIGHLAND BRIDGEVILLE PA 15017,SOUTH FAYETTE,40.367603778946247,-80.130830168642362,456001
0197N00005000000,1096 GROMWELL LN BRIDGEVILLE PA 15017,SOUTH FAYETTE,40.365341115675825,-80.129371804308562,456001
0197K00389000000,1308 VILLAGE LN BRIDGEVILLE PA 15017,SOUTH FAYETTE,40.368089432875486,-80.128412905104184,456001
0197K00387000000,1310 VILLAGE LN BRIDGEVILLE PA 15017,SOUTH FAYETTE,40.368084090380059,-80.128532643081883,456001
0197J00375000000,1322 VILLAGE LN BRIDGEVILLE PA 15017,SOUTH FAYETTE,40.368056595295293,-80.129184656587569,456001
0197J00293000000,1259 NEWBURY HIGHLAND BRIDGEVILLE PA 15017,SOUTH FAYETTE,40.368152765094344,-80.130175298768947,456001
0197J00285000000,1251 NEWBURY HIGHLAND BRIDGEVILLE PA 15017,SOUTH FAYETTE,40.368389951898955,-80.129555816938222,456001
0197J00281000000,1239 NEWBURY HIGHLAND BRIDGEVILLE PA 15017,SOUTH FAYETTE,40.368408499493277,-80.129066231147235,456001
0197J00153000000,1256 NEWBURY HIGHLAND BRIDGEVILLE PA 15017,SOUTH FAYETTE,40.368678038170167,-80.130754375356176,456001
0197J00151000000,1258 NEWBURY HIGHLAND BRIDGEVILLE PA 15017,SOUTH FAYETTE,40.368320658476065,-80.130830245705667,456001
0195M00084000000,1916 SPRING VALLEY RD PITTSBURGH PA 15243,SCOTT,40.368431734831930,-80.085628029466832,470400
0195L00082000000,335 TWIN OAKS RD PITTSBURGH PA 15243,SCOTT,40.368248972956884,-80.091041952577626,470400
0195L00006000000,2027 ROCKFIELD RD PITTSBURGH PA 15243,SCOTT,40.370024505073886,-80.090710184755736,470400
0195C00149000000,142 GREEN COMMONS DR PITTSBURGH PA 15243,SCOTT,40.374597584124537,-80.089000273660076,470300
0195C00147000000,140 GREEN COMMONS DR PITTSBURGH PA 15243,SCOTT,40.374416114642685,-80.089049124117082,470300
0194R00073000000,833 BETHANY DR PITTSBURGH PA 15243,MT.LEBANON,40.365704311713230,-80.072521430606258,473602
0194J00166000000,1616 BERKWOOD DR PITTSBURGH PA 15243,SCOTT,40.369650178197446,-80.079585822113046,470400
0194F00226000000,526 CLEMSON DR PITTSBURGH PA 15243,MT.LEBANON,40.371261025229551,-80.075114590089257,473602
0193A00056000000,1080 LAKEMONT DR PITTSBURGH PA 15243,MT.LEBANON,40.373651234468312,-80.065691394594836,473602
0192P00152000000,124 ROCK HAVEN LN PITTSBURGH PA 15228,MT.LEBANON,40.366321987692423,-80.043185363758269,473401
0192P00141000000,148 ROCK HAVEN LN PITTSBURGH PA 15228,MT.LEBANON,40.366933671445018,-80.041873775819624,473401
0192K00112000000,226 MAIN ENTRANCE DR PITTSBURGH PA 15228,MT.LEBANON,40.369775103485878,-80.044771086988135,473401
0192G00090000000,354 JEFFERSON DR PITTSBURGH PA 15228,MT.LEBANON,40.371225947672315,-80.039692099466535,473401
0192D00240000000,370 TAMPA AVE PITTSBURGH PA 15228,MT.LEBANON,40.374669719357982,-80.034812421186800,473300
0191P00214000000,930 PARK AVE PITTSBURGH PA 15234,CASTLE SHANNON,40.366397873537466,-80.024752971742146,476100
0191A00090000000,468 THORNYCROFT AVE PITTSBURGH PA 15228,MT.LEBANON,40.373731819955161,-80.029164941064465,473300
0190S00370000000,12 HENNIG DR PITTSBURGH PA 15236,WHITEHALL,40.365410645403827,-80.000599476720382,477100
0190S00105000000,69 HENNIG DR PITTSBURGH PA 15236,WHITEHALL,40.366142485373572,-80.003595897558867,477100
0190R00185000000,3339 SYCAMORE DR PITTSBURGH PA 15234,CASTLE SHANNON,40.365888602791870,-80.006835054204913,476200
0190M00197000000,129 STEEPLECHASE CT PITTSBURGH PA 15236,WHITEHALL,40.369479806488300,-80.001662055262926,477100
0190M00187000000,117 STEEPLECHASE CT PITTSBURGH PA 15236,WHITEHALL,40.369137994523598,-80.001102268188205,477100
0190M00173000000,101 STEEPLECHASE CT PITTSBURGH PA 15236,WHITEHALL,40.368912036375548,-80.000166646868323,477100
0190G00192000000,3155 BELLEVILLE ST PITTSBURGH PA 15234,CASTLE SHANNON,40.371420719950919,-80.006089968508277,476200
0190E00088000000,919 MAPLEWOOD DR PITTSBURGH PA 15234,CASTLE SHANNON,40.372458345187660,-80.015398980588543,476100
0190D00164000000,2881 EAST MAY ST PITTSBURGH PA 15234,CASTLE SHANNON,40.374269903050241,-80.001598414046839,476200
0190C00180000000,3105 HOME AVE PITTSBURGH PA 15234,CASTLE SHANNON,40.372913695526975,-80.005509153026509,476200
0190C00144000000,3017 BELLEVILLE ST PITTSBURGH PA 15234,CASTLE SHANNON,40.373252480876033,-80.003826796518595,476200
0190B00158000000,151 FORT PITT BLVD PITTSBURGH PA 15222,CASTLE SHANNON,40.373402783660545,-80.010296882878194,476100
0190A00250000000,914 MAPLEWOOD DR PITTSBURGH PA 15234,CASTLE SHANNON,40.373313448102692,-80.015360550530659,476100
0189S00101000000,4155 ROCKWOOD DR PITTSBURGH PA 15227,BRENTWOOD,40.366390895874048,-79.985770372779896,478100
0189N00200000000,3413 REILAND ST PITTSBURGH PA 15227,WHITEHALL,40.366616582109351,-79.996076876186493,477200
0189G00122000000,561 MARYLEA AVE PITTSBURGH PA 15227,WHITEHALL,40.371298956952316,-79.988144974801457,477200
0189G00108000000,570 MARYLEA AVE PITTSBURGH PA 15227,WHITEHALL,40.371789357983367,-79.989016029629823,477200
0189G00029000000,637 GREENLEE RD PITTSBURGH PA 15227,WHITEHALL,40.372129761647351,-79.990391768378316,477200
0189F00213000000,29 SHADOW DR PITTSBURGH PA 15227,WHITEHALL,40.371690459736634,-79.993519123100455,477200
0189E00066000000,165 DEEMER DR PITTSBURGH PA 15234,WHITEHALL,40.371775011683205,-79.997638264115707,477200
0189E00012000000,5146 MCROBERTS RD PITTSBURGH PA 15234,WHITEHALL,40.370040125201648,-79.998584208259004,477100
0188P00013000000,3941 BROWNSVILLE RD PITTSBURGH PA 15227,BRENTWOOD,40.367344101831499,-79.978389487949727,478200
0188N00227000000,4101 DALEWOOD ST PITTSBURGH PA 15227,BRENTWOOD,40.365392716685271,-79.980996143119143,478200
0188N00016000000,103 HEATHMORE AVE PITTSBURGH PA 15227,BRENTWOOD,40.367555334321452,-79.981273361564533,478100
0188L00090000000,209 HURSTON WAY PITTSBURGH PA 15227,BRENTWOOD,40.369278888120732,-79.972813172489822,478200
0188K00168000000,3907 THERESA AVE PITTSBURGH PA 15227,BRENTWOOD,40.369532473203826,-79.978273977940447,478100
0188J00093000000,123 W BRENTRIDGE AVE PITTSBURGH PA 15227,BRENTWOOD,40.368240325006944,-79.980506563861923,478100
0188J00001000000,209 MIRA AVE PITTSBURGH PA 15227,BRENTWOOD,40.370011859434591,-79.978635189418611,478100
0188H00111000000,408 POINTVIEW RD PITTSBURGH PA 15227,BRENTWOOD,40.371618837733443,-79.969374488600593,478200
0188G00217000000,26 HILLMAN ST PITTSBURGH PA 15227,BRENTWOOD,40.371732879984116,-79.973975526636693,478200
0188G00187000000,3742 WOODROW AVE PITTSBURGH PA 15227,BRENTWOOD,40.371838582518741,-79.972975565746637,478200
0188G00040000000,69 CONSON RD PITTSBURGH PA 15227,BRENTWOOD,40.371742227474904,-79.970993451735850,478200
0188E00136000000,331 MARYLEA AVE PITTSBURGH PA 15227,BRENTWOOD,40.371178345591495,-79.980138978593416,478100
0188E00123000000,355 MARYLEA AVE PITTSBURGH PA 15227,BRENTWOOD,40.370787936986552,-79.981180858525846,478100
0188D00051000000,462 E GARDEN RD PITTSBURGH PA 15227,BRENTWOOD,40.373421109096469,-79.966451425981163,478200
0188C00072000000,59 POINTVIEW RD PITTSBURGH PA 15227,BRENTWOOD,40.372930709225997,-79.972235711293308,478200
0188B00106000000,21 HILLSON AVE PITTSBURGH PA 15227,BRENTWOOD,40.374830035107159,-79.976228177344410,478100
0187D00262000000,3905 FREDERICK ST PITTSBURGH PA 15227,BALDWIN BORO,40.372887390914713,-79.950275167568691,480400
0185R00306000000,820 MULDOWNEY AVE WEST MIFFLIN PA 15122,WEST MIFFLIN,40.367435566599887,-79.923474184862201,488500
0185R00300000000,802 MULDOWNEY AVE WEST MIFFLIN PA 15122,WEST MIFFLIN,40.367067360757112,-79.923809242992959,488500
0185P00176000000,509 ELWELL AVE WEST MIFFLIN PA 15122,WEST MIFFLIN,40.365790655027396,-79.926183716999915,488500
0185L00326000000,827 MULDOWNEY AVE WEST MIFFLIN PA 15122,WEST MIFFLIN,40.367911601428439,-79.923599204155138,488500
0185E00006000000,149 SHARA DR WEST MIFFLIN PA 15122,WEST MIFFLIN,40.372433564140344,-79.929846019502733,488500
0184N00311000000,1227 STOCK ST PITTSBURGH PA 15207,31ST WARD - PITTSBURGH,40.365926673259501,-79.914903285292851,310200
0184F00084000000,1404 LEASIDE DR PITTSBURGH PA 15207,31ST WARD - PITTSBURGH,40.370735580273930,-79.910815703289941,310200
0182P00022000000,138 BELLWOOD DR HOMESTEAD PA 15120,MUNHALL,40.377122761402696,-79.892947567635005,484500
0182M00101101400,1014 WESTWOOD LN WEST MIFFLIN PA 15122,WEST MIFFLIN,40.378725365612830,-79.884928229506528,488300
0182L00116000000,163 CLUBVUE DR WEST MIFFLIN PA 15122,WEST MIFFLIN,40.379350526061920,-79.890613051898725,488100
0182G00106000000,105 ANBORN DR WEST MIFFLIN PA 15122,WEST MIFFLIN,40.380458264440115,-79.889206818295051,488100
0182D00026000000,4641 BOWES AVE WEST MIFFLIN PA 15122,WEST MIFFLIN,40.383063260294342,-79.883017636151038,488100
0182C00130000000,313 BELLWOOD RD WEST MIFFLIN PA 15122,WEST MIFFLIN,40.383852676503672,-79.888230369469454,488100
0182A00240000000,3534 VALEWOOD DR HOMESTEAD PA 15120,MUNHALL,40.383228808991298,-79.897385962624057,484500
0181S00050000000,4318 FRANCIS ST WEST MIFFLIN PA 15122,WEST MIFFLIN,40.387159280977301,-79.883111523604342,488100
0181M00271000000,4204 HOME ST WEST MIFFLIN PA 15122,WEST MIFFLIN,40.387991026948697,-79.883961266480043,488100
0181E00018000000,309 E JAMES ST HOMESTEAD PA 15120,MUNHALL,40.391793743899854,-79.896500474336705,484600
0181E00017000000,313 E JAMES ST HOMESTEAD PA 15120,MUNHALL,40.391789645494562,-79.896391431696799,484600
0181D00063000000,3507 GREENSPRINGS AVE WEST MIFFLIN PA 15122,WEST MIFFLIN,40.393394597288562,-79.886175444467256,488200
0181C00148000000,3426 GREENSPRINGS AVE WEST MIFFLIN PA 15122,WEST MIFFLIN,40.393018072956309,-79.887032532839882,488100
0180N00170000000,2308 CLINTON ST HOMESTEAD PA 15120,MUNHALL,40.395395908340035,-79.897629582940240,484600
0180G00342000000,154 LINCOLN AVE HOMESTEAD PA 15120,WHITAKER,40.399769530946926,-79.889830189361334,485000
0180D00195000000,0 RIVERVIEW AVE HOMESTEAD PA 15120,MUNHALL,40.403365807053831,-79.884539139820802,484300
0180B00270000000,225 W LARKSPUR ST HOMESTEAD PA 15120,MUNHALL,40.401803049518193,-79.894055424425105,484300
0180B00045000000,148 DAHLIA ST HOMESTEAD PA 15120,MUNHALL,40.403627500589330,-79.893785745257105,484300
0179R00117000000,106-108 ORRIS ST HOMESTEAD PA 15120,MUNHALL,40.404121092019693,-79.888595171904072,484300
0179R00028000000,0 E 8TH AVE HOMESTEAD PA 15120,MUNHALL,40.406322490103932,-79.888162623745615,484300
0179P00241000000,250 VINE ST HOMESTEAD PA 15120,MUNHALL,40.404729313391101,-79.893596782755822,484300
0179L00104000000,0 E 8TH AVE HOMESTEAD PA 15120,MUNHALL,40.407232054729064,-79.891120938322032,484300
0179K00065000000,0 E 8TH AVE HOMESTEAD PA 15120,MUNHALL,40.407048549215794,-79.891847536697497,484300
0179K00054000000,0 E 8TH AVE HOMESTEAD PA 15120,MUNHALL,40.407405151646387,-79.891692180053511,484300
0179K00050000000,0 E 8TH AVE HOMESTEAD PA 15120,MUNHALL,40.407281995932067,-79.891397682077653,484300
0179J00135000000,38 GRANT ST HOMESTEAD PA 15120,MUNHALL,40.408067980214035,-79.898447464085422,484300
0178L00108000000,7334 BURTON ST PITTSBURGH PA 15218,SWISSVALE,40.417992776096135,-79.888756035984997,515300
0178G00244000000,7417 PARK AVE PITTSBURGH PA 15218,SWISSVALE,40.419728969041500,-79.888133550913565,515300
0178G00108000000,7364 SCHLEY AVE PITTSBURGH PA 15218,SWISSVALE,40.419801281410571,-79.889894435071724,515300
0178E00214000000,7108 MCCLURE AVE PITTSBURGH PA 15218,SWISSVALE,40.420349723157706,-79.896259716475768,515300
0178D00217000000,7620 ROSLYN ST PITTSBURGH PA 15218,SWISSVALE,40.421448380767494,-79.883124969707808,515100
0178B00285001500,115 LONGFELLOW CT PITTSBURGH PA 15218,SWISSVALE,40.422019740074603,-79.891611332092708,515300
0178B00282001700,7330 MCCLURE AVE PITTSBURGH PA 15218,SWISSVALE,40.422223317100809,-79.891695755310749,515300
0178B00282001000,7330 MCCLURE AVE PITTSBURGH PA 15218,SWISSVALE,40.422244548750633,-79.891801652404837,515300
0178B00282000400,7330 MCCLURE AVE PITTSBURGH PA 15218,SWISSVALE,40.422281809144579,-79.891562084211103,515300
0178A00316000000,7127 SCHOYER AVE PITTSBURGH PA 15218,SWISSVALE,40.421852798211418,-79.896412287622439,515401
0178A00211000000,7129 HARRISON AVE PITTSBURGH PA 15218,SWISSVALE,40.422576447893469,-79.896765533540062,515401
0178A00056000000,229 HOMESTEAD ST PITTSBURGH PA 15218,14TH WARD - PITTSBURGH,40.421709889662850,-79.899239949683832,141100
0177S00210000000,2013 COLUMBIA AVE PITTSBURGH PA 15218,SWISSVALE,40.424084534928070,-79.883467883767452,515200
0177S00108000000,7814 EDGEWOOD AVE PITTSBURGH PA 15218,SWISSVALE,40.425128682647880,-79.885518512950057,515200
0177S00070000000,7918 NEWMEYER ST PITTSBURGH PA 15218,SWISSVALE,40.425879881627495,-79.884026386415286,515200
0177S00008000000,2007 HAMPTON ST PITTSBURGH PA 15218,SWISSVALE,40.425681168155357,-79.883122757444781,515200
0177P00009000000,1643 MONONGAHELA AVE PITTSBURGH PA 15218,SWISSVALE,40.425551757864504,-79.891285841940302,515401
0177M00193000000,7930 EDGEWOOD AVE PITTSBURGH PA 15218,SWISSVALE,40.426376100847470,-79.884935385531890,515200
0177K00126000000,0 MIRIAM ST PITTSBURGH PA 15218,SWISSVALE,40.425988105848830,-79.891380655651943,515401
0177J00059000000,7330 TREVANION AVE PITTSBURGH PA 15218,SWISSVALE,40.427977253491846,-79.895986460885467,515401
0177G00124000000,104 SEDDON RD PITTSBURGH PA 15218,EDGEWOOD,40.429868081334462,-79.889341750255397,516100
0177F00286000000,1211 LACLAIR AVE PITTSBURGH PA 15218,SWISSVALE,40.430693403434873,-79.894728427857387,515401
0177F00280000000,1217 LACLAIR AVE PITTSBURGH PA 15218,SWISSVALE,40.430432867008548,-79.894534277481043,515401
0177F00231000000,1208 MILTON ST PITTSBURGH PA 15218,SWISSVALE,40.430651409574693,-79.894108014626937,515401
0177F00224000000,1219 MILTON ST PITTSBURGH PA 15218,SWISSVALE,40.430782127056275,-79.893509107293852,515401
0177F00202000000,1329 MILTON ST PITTSBURGH PA 15218,SWISSVALE,40.429678639602599,-79.892758825518044,515401
0177F00194000000,7510 TREVANION AVE PITTSBURGH PA 15218,SWISSVALE,40.429299473154373,-79.892916008665182,515401
0177F00114000000,1230 S BRADDOCK AVE PITTSBURGH PA 15218,SWISSVALE,40.430807506804499,-79.892947554568451,515401
0177E00298000000,1123 MACON AVE PITTSBURGH PA 15218,SWISSVALE,40.430812901834479,-79.896076738026906,515401
0177E00282000000,1211 MACON AVE PITTSBURGH PA 15218,SWISSVALE,40.429973683622691,-79.895479124506423,515401
0177E00281000000,1213 MACON AVE PITTSBURGH PA 15218,SWISSVALE,40.429891579745771,-79.895423300731636,515401
0177D00164000000,120 ELM ST PITTSBURGH PA 15218,EDGEWOOD,40.430939365689120,-79.883425515234194,516200
0177D00062000000,136 W SWISSVALE AVE PITTSBURGH PA 15218,EDGEWOOD,40.432191699332733,-79.886847269015263,516100
0177D00007000000,111 PENNWOOD AVE PITTSBURGH PA 15218,EDGEWOOD,40.433153688115191,-79.885437110422771,516100
0177C00279000000,1209 SAVANNAH AVE PITTSBURGH PA 15218,EDGEWOOD,40.432481862232486,-79.890874406533442,516100
0177C00261000000,1208 MIFFLIN AVE PITTSBURGH PA 15218,EDGEWOOD,40.432670093265216,-79.890433475810383,516100
0177C00188000000,504 GREENDALE AVE PITTSBURGH PA 15218,EDGEWOOD,40.431896248284694,-79.889727161658968,516100
0177C00071000A00,519 GREENDALE AVE PITTSBURGH PA 15218,EDGEWOOD,40.431202901656782,-79.889639953520415,516100
0177C00060000000,226 GARLAND ST PITTSBURGH PA 15218,EDGEWOOD,40.431337443036441,-79.889059983179536,516100
0177B00232000000,151 FORT PITT BLVD PITTSBURGH PA 15222,SWISSVALE,40.431149417786052,-79.895073197104153,515401
0177B00060000000,540 ALLENBY AVE PITTSBURGH PA 15218,EDGEWOOD,40.431301299800865,-79.891258158501245,516100
0177B00036000000,1115 EAST END AVE PITTSBURGH PA 15218,EDGEWOOD,40.432771814884525,-79.892374772171209,516100
0177B00033000000,1109 EAST END AVE PITTSBURGH PA 15218,EDGEWOOD,40.433039027044423,-79.892631338664231,516100
0177B00029000000,409 W HUTCHINSON AVE PITTSBURGH PA 15218,EDGEWOOD,40.433255344267288,-79.892459179786343,516100
0176R00128000000,191 W HUTCHINSON AVE PITTSBURGH PA 15218,EDGEWOOD,40.434465175771926,-79.889707345786874,516100
0176R00111000000,157 W HUTCHINSON AVE PITTSBURGH PA 15218,EDGEWOOD,40.434872330630881,-79.888309776752351,516100
0176P00088000000,1029 SAVANNAH AVE PITTSBURGH PA 15221,EDGEWOOD,40.434377263364546,-79.892261949429496,516100
0176P00020000000,414 W HUTCHINSON AVE PITTSBURGH PA 15218,EDGEWOOD,40.433591581178547,-79.892874608581408,516100
0176M00206000000,708 WHITNEY AVE PITTSBURGH PA 15221,WILKINSBURG,40.437712485102900,-79.885266240395978,564700
0176M00038000000,617 HAMPTON AVE PITTSBURGH PA 15221,WILKINSBURG,40.437251542108434,-79.886881965824728,560500
0176L00367000000,104 HAY ST PITTSBURGH PA 15221,WILKINSBURG,40.436413422857576,-79.887499119319003,560500
0176L00366000000,106 HAY ST PITTSBURGH PA 15221,WILKINSBURG,40.436539413331872,-79.887543434744060,560500
0176L00064000000,432 LAMAR AVE PITTSBURGH PA 15221,WILKINSBURG,40.438026210840725,-79.888629346892742,560500
0176L00039000000,409 BARNES ST PITTSBURGH PA 15221,WILKINSBURG,40.437464747940275,-79.890338831869684,560500
0176K00053000000,113 BIDDLE AVE PITTSBURGH PA 15221,WILKINSBURG,40.437529487227231,-79.894763030537746,560500
0176J00037000000,718 EAST END AVE PITTSBURGH PA 15221,14TH WARD - PITTSBURGH,40.437942652018883,-79.896020741709762,141200
0176H00364000000,522 TODD ST PITTSBURGH PA 15221,WILKINSBURG,40.439499447827615,-79.886882454817922,560500
0176F00387000000,319 WEST ST PITTSBURGH PA 15221,WILKINSBURG,40.439586047559935,-79.891523503946615,560500
0176F00385000000,315 WEST ST PITTSBURGH PA 15221,WILKINSBURG,40.439443359769925,-79.891520143700504,560500
0176F00384000000,313 WEST ST PITTSBURGH PA 15221,WILKINSBURG,40.439361162070348,-79.891517534419933,560500
0176F00019000000,582 PEEBLES ST PITTSBURGH PA 15221,14TH WARD - PITTSBURGH,40.440022984745561,-79.894909542911876,141200
0176E00090000000,703 S BRADDOCK AVE PITTSBURGH PA 15221,14TH WARD - PITTSBURGH,40.438217834735006,-79.896671712275491,141200
0176E00049000000,577 S BRADDOCK AVE PITTSBURGH PA 15221,14TH WARD - PITTSBURGH,40.440234860119482,-79.897470120335171,141200
0176E00048000000,575 S BRADDOCK AVE PITTSBURGH PA 15221,14TH WARD - PITTSBURGH,40.440312589290187,-79.897439704360281,141200
0176C00323000000,417 KELLY AVE PITTSBURGH PA 15221,WILKINSBURG,40.441081667592968,-79.890370506975458,560400
0176C00307000000,404-406 REBECCA AVE PITTSBURGH PA 15221,WILKINSBURG,40.441758014385513,-79.891058259650961,560400
0176C00184000000,413 REBECCA AVE PITTSBURGH PA 15221,WILKINSBURG,40.442073915773918,-79.890524435062076,560400
0176C00182000000,411 REBECCA AVE PITTSBURGH PA 15221,WILKINSBURG,40.442106572039194,-79.890620528883858,560400
0176C00168000000,614 WEST ST PITTSBURGH PA 15221,WILKINSBURG,40.442490738382567,-79.890930777746732,560400
0176B00340000000,414 S TRENTON AVE PITTSBURGH PA 15221,WILKINSBURG,40.442924547833726,-79.892699023822146,560400
0176A00002000000,564 CELERON ST PITTSBURGH PA 15221,14TH WARD - PITTSBURGH,40.440692435641559,-79.895616281863965,141200
0175R00230000000,421 ROSS AVE PITTSBURGH PA 15221,WILKINSBURG,40.444298278589990,-79.888730926503385,560400
0175M00202000000,524 HOLMES ST PITTSBURGH PA 15221,WILKINSBURG,40.447115731944322,-79.884408135394963,564800
0175J00187000000,202-204 S BRADDOCK AVE PITTSBURGH PA 15221,14TH WARD - PITTSBURGH,40.446108609081030,-79.895925179890071,141200
0175J00119000000,7428 RICHLAND PL PITTSBURGH PA 15208,14TH WARD - PITTSBURGH,40.446350489858332,-79.898101158708371,141200
0174B00106000000,7162 UPLAND ST PITTSBURGH PA 15208,13TH WARD - PITTSBURGH,40.461959091607604,-79.894955100263360,130700
0173H00266000000,7262 LAWTON ST PITTSBURGH PA 15235,PENN HILLS,40.469181583203657,-79.885982864828492,523100
0173F00025000000,1522 LINCOLN AVE PITTSBURGH PA 15206,12TH WARD - PITTSBURGH,40.469058854626745,-79.895070949095725,561900
0173D00040000000,7244 SCHLEY ST PITTSBURGH PA 15235,PENN HILLS,40.469893528695231,-79.885580288866691,523100
0173C00238000000,7224 VERONA BLVD PITTSBURGH PA 15235,12TH WARD - PITTSBURGH,40.472131406806248,-79.889406684712910,561900
0172N00153000000,6930 HARTMAN LN PITTSBURGH PA 15206,12TH WARD - PITTSBURGH,40.473463482035861,-79.896579090228315,561900
0171M00157000000,422 CHAPEL HARBOR DR PITTSBURGH PA 15238,O''HARA,40.485522701493700,-79.885570777630079,421100
0171M00107000000,692 ARBOR CT PITTSBURGH PA 15238,O''HARA,40.485793522302750,-79.886571193431749,421100
0170R00049000000,301 PASADENA DR S PITTSBURGH PA 15215,FOX CHAPEL,40.493994556736062,-79.890167213056458,422000
0170N00166000000,97 VALLEY DR PITTSBURGH PA 15215,O''HARA,40.494025863586707,-79.897124032303722,421200
0170N00080000000,417 VIRGINIA AVE PITTSBURGH PA 15215,ASPINWALL,40.492504554437339,-79.898672004252745,423000
0170N00077000000,411 VIRGINIA AVE PITTSBURGH PA 15215,ASPINWALL,40.492339327143590,-79.898961918375008,423000
0170N00036000000,225 VIRGINIA AVE PITTSBURGH PA 15215,ASPINWALL,40.491862548125454,-79.899025184468542,423000
0170N00031000000,221 VIRGINIA AVE PITTSBURGH PA 15215,ASPINWALL,40.491627172701946,-79.899064000452199,423000
0170L00010000000,111 THE OAKS PITTSBURGH PA 15215,FOX CHAPEL,40.494403238915339,-79.890815829880182,422000
0170K00137000000,405 E WALDHEIM RD PITTSBURGH PA 15215,FOX CHAPEL,40.495708397872662,-79.892403000698835,422000
0170G00114000000,112 WOODSHIRE DR PITTSBURGH PA 15215,O''HARA,40.497347650874353,-79.887082407351613,421100
0170F00135000000,1001 W WALDHEIM RD PITTSBURGH PA 15215,FOX CHAPEL,40.497466895265553,-79.893060986455168,422000
0170E00228000000,412 VALLEY DR PITTSBURGH PA 15215,FOX CHAPEL,40.497437757309164,-79.899335339433406,422000
0170E00167000000,22 WINDSOR RD PITTSBURGH PA 15215,FOX CHAPEL,40.496700180089022,-79.898523702634165,422000
0170B00183000000,213 HAMPTON RD PITTSBURGH PA 15215,FOX CHAPEL,40.499386582589601,-79.891702180268084,422000
0170B00162000000,412 PASADENA DR N PITTSBURGH PA 15215,FOX CHAPEL,40.499184056240729,-79.892600563265901,422000
0170B00022000000,917 NOTRE DAME PL PITTSBURGH PA 15215,FOX CHAPEL,40.500054918599304,-79.895066328925878,422000
0170A00175000000,190 GRANDVIEW DR S PITTSBURGH PA 15215,FOX CHAPEL,40.500219229180345,-79.898137135814068,422000
0169S00353000000,221 3RD ST PITTSBURGH PA 15215,ASPINWALL,40.492115818833213,-79.903324863906363,423000
0169S00319000000,219 4TH ST PITTSBURGH PA 15215,ASPINWALL,40.492816371264745,-79.903098118429739,423000
0169S00030000000,407 EMERSON AVE PITTSBURGH PA 15215,ASPINWALL,40.492472163070715,-79.899829062863887,423000
0169R00290000000,123 2ND ST PITTSBURGH PA 15215,ASPINWALL,40.492001848076811,-79.905719723222319,423000
0169R00239000000,122 3RD ST PITTSBURGH PA 15215,ASPINWALL,40.492309600428413,-79.905575142988823,423000
0169R00194000000,125 3RD ST PITTSBURGH PA 15215,ASPINWALL,40.492672288822106,-79.905301323220556,423000
0169R00130000000,126 4TH ST PITTSBURGH PA 15215,ASPINWALL,40.492977948300982,-79.905154322647860,423000
0169R00127000000,134 4TH ST PITTSBURGH PA 15215,ASPINWALL,40.492886154566143,-79.904822343203520,423000
0169M00074000000,215 7TH ST PITTSBURGH PA 15215,ASPINWALL,40.495053623074021,-79.902605265369317,423000
0169L00259000000,22 5TH ST PITTSBURGH PA 15215,ASPINWALL,40.494245905810835,-79.906987951171502,423000
0169L00244000000,121 5TH ST PITTSBURGH PA 15215,ASPINWALL,40.494074523703077,-79.904901104324651,423000
0169L00145000000,126 W 8TH ST PITTSBURGH PA 15215,ASPINWALL,40.495490613344423,-79.903930081810557,423000
0169D00010000000,518 GUYASUTA RD PITTSBURGH PA 15215,ASPINWALL,40.499358466090783,-79.903231686140572,423000
0169A00024000000,205 SAINT CHARLES PL PITTSBURGH PA 15215,O''HARA,40.500695797569108,-79.914494945034605,421200
0168M00326000000,1860 MAIN ST PITTSBURGH PA 15215,SHARPSBURG,40.494402882066773,-79.918906806634567,424000
0168K00326000000,1403 S CANAL ST PITTSBURGH PA 15215,SHARPSBURG,40.495820118374183,-79.927367226257132,424000
0168E00088000000,322 GILDENFENNY WAY PITTSBURGH PA 15215,SHARPSBURG,40.496698212846162,-79.932437966040382,424000
0168C00038000000,96 KITTANNING PIKE PITTSBURGH PA 15215,O''HARA,40.500314443644918,-79.924004694711385,421200
0167E00037000000,12 ELM LN PITTSBURGH PA 15223,ETNA,40.498162442188665,-79.946144861404704,425000
0166S00242000000,125 VISTA ST PITTSBURGH PA 15223,ETNA,40.492131216245340,-79.952245792603094,425000
0166N00278000000,50 ELIZABETH ST PITTSBURGH PA 15209,SHALER,40.492019809554883,-79.962266137965571,427200
0166L00108000000,208 DAVIS AVE PITTSBURGH PA 15223,SHALER,40.495091214643978,-79.956922474709913,427200
0166K00297000000,404 REETZ AVE PITTSBURGH PA 15209,SHALER,40.495803961533426,-79.960398410323776,427200
0166E00183000000,321 HAWTHORNE RD PITTSBURGH PA 15209,SHALER,40.496662540072315,-79.965059115419592,427200
0166D00058000000,18 BUTTERFIELD AVE PITTSBURGH PA 15223,SHALER,40.499189574201274,-79.952627912894712,427200
0166C00240000000,198 SEAVEY RD PITTSBURGH PA 15223,SHALER,40.500023397546826,-79.954681238724618,427200
0165P00081000000,1219 EVERGREEN AVE PITTSBURGH PA 15209,MILLVALE,40.493355064526291,-79.975768650068389,427000
0165K00290000000,111 GLENWOOD AVE PITTSBURGH PA 15209,SHALER,40.496052162241654,-79.977739930027255,427200
0165J00102000000,150 GLENWOOD AVE PITTSBURGH PA 15209,SHALER,40.495996256319884,-79.980263603477695,427200
0165J00052000000,146 WYNNE ST PITTSBURGH PA 15209,SHALER,40.496479849267168,-79.979694021517020,427200
0165F00290000000,1540 EVERGREEN AVE PITTSBURGH PA 15209,SHALER,40.498605969093617,-79.976960966454030,427200
0165E00143000400,178 WYNNE ST PITTSBURGH PA 15209,SHALER,40.496863448826922,-79.979990855503587,427200
0165B00011000000,100 TOPVIEW DR PITTSBURGH PA 15209,SHALER,40.500711888140948,-79.978311332522850,427100
0164A00003000000,106 OESTERLE LN PITTSBURGH PA 15214,ROSS,40.501139622308401,-79.999304149849578,429100
0163M00018000000,17 VILLA CT PITTSBURGH PA 15214,RESERVE,40.494890956080233,-80.000952457780812,428200
0163C00172000000,0 PEOPLES RD PITTSBURGH PA 15237,ROSS,40.500260331238238,-80.005922596975566,429100
0162K00264000000,418 KATHERINE ST PITTSBURGH PA 15214,ROSS,40.496435265322781,-80.027875134579276,429700
0162F00023000000,0 KATHERINE ST PITTSBURGH PA 15214,ROSS,40.496632458451657,-80.027930945460938,429700
0162C00030000000,4520 PERRYSVILLE AVE PITTSBURGH PA 15229,ROSS,40.499933040311923,-80.020764483136034,429100
0161K00304000000,4415 LUCERNE AVE PITTSBURGH PA 15214,ROSS,40.494586370852574,-80.044168967552650,429700
0160S00268000000,17 S BRYANT AVE PITTSBURGH PA 15202,BELLEVUE,40.492080595817768,-80.049594529907438,431100
0160S00077000000,420 HALLETT PL PITTSBURGH PA 15202,BELLEVUE,40.493942235634449,-80.053455007161830,431500
0160M00233000000,65 N FREMONT AVE PITTSBURGH PA 15202,BELLEVUE,40.496162480586072,-80.051791962109803,431500
0160M00149000000,77 N HARRISON AVE PITTSBURGH PA 15202,BELLEVUE,40.495956031985905,-80.050814890841409,431100
0160M00014000000,72 N EUCLID AVE PITTSBURGH PA 15202,BELLEVUE,40.494992019543986,-80.049587664927500,431100
0160L00222000000,34-36 SHERIDAN AVE PITTSBURGH PA 15202,BELLEVUE,40.494547730732528,-80.055969648412514,431500
0160K00012000000,19 S JACKSON AVE PITTSBURGH PA 15202,BELLEVUE,40.496250144814361,-80.058471076284718,431500
0160J00130000000,956 JACKMAN AVE PITTSBURGH PA 15202,AVALON,40.495459987314881,-80.064031954026177,432400
0160J00126000000,952 JACKMAN AVE PITTSBURGH PA 15202,AVALON,40.495592603192861,-80.064226124958324,432400
0160J00060010100,227 S HOME AVE PITTSBURGH PA 15202,AVALON,40.496625970648815,-80.063694754117876,432400
0160G00271000000,57 N SPRAGUE AVE PITTSBURGH PA 15202,BELLEVUE,40.498040709115848,-80.057110273491858,431500
0160G00218000000,70 N SPRAGUE AVE PITTSBURGH PA 15202,BELLEVUE,40.498241725010658,-80.056510181404690,431500
0160G00063000000,549 DAWSON AVE PITTSBURGH PA 15202,BELLEVUE,40.498707023324748,-80.055400393674930,431500
0160F00042000000,36 FLORENCE AVE PITTSBURGH PA 15202,BELLEVUE,40.498350931872750,-80.058662258127583,431500
0160E00152000000,331 MCKINLEY AVE PITTSBURGH PA 15202,AVALON,40.498363278783160,-80.063922273217528,432400
0160E00076000000,322 MCKINLEY AVE PITTSBURGH PA 15202,AVALON,40.497913147349763,-80.063571292770590,432400
0160D00219000000,501 FOREST AVE PITTSBURGH PA 15202,BELLEVUE,40.499956899613281,-80.052758264972411,431400
0160C00272000000,105 N JACKSON AVE PITTSBURGH PA 15202,BELLEVUE,40.499923383089261,-80.057658615695772,431500
0160C00109000000,577 ORCHARD AVE PITTSBURGH PA 15202,BELLEVUE,40.500059420026915,-80.055600764490976,431500
0160C00044000000,174 N SPRAGUE AVE PITTSBURGH PA 15202,BELLEVUE,40.501292157962020,-80.055649240544739,431400
0160C00010000100,550-552 FOREST AVE PITTSBURGH PA 15202,BELLEVUE,40.500982376274074,-80.053780931114034,431400
0160C00004000000,570 FOREST AVE PITTSBURGH PA 15202,BELLEVUE,40.501234438117358,-80.054210843218826,431400
0160B00207000000,714 CLINTON PL PITTSBURGH PA 15202,BELLEVUE,40.499185071084462,-80.060328596538156,431500
0159D00254000000,727 HEMLOCK ST PITTSBURGH PA 15202,AVALON,40.499123037057032,-80.068077198576361,432400
0159D00250000000,719 HEMLOCK ST PITTSBURGH PA 15202,AVALON,40.499317392962148,-80.068292343487514,432400
0159D00154000000,531 FLORENCE AVE PITTSBURGH PA 15202,AVALON,40.501010355513060,-80.069781590017357,432400
0159C00218000000,115 HARRISON AVE PITTSBURGH PA 15202,AVALON,40.500944104240006,-80.073376380145177,432400
0159C00182000000,221 S OHIO ST PITTSBURGH PA 15202,AVALON,40.501261278577530,-80.071703229371280,432400
0157S00053000000,122 LONG VALLEY DR EXT CORAOPOLIS PA 15108,KENNEDY,40.491908924413870,-80.101808006544715,460001
0157P00100121300,1213 STANFORD CT CORAOPOLIS PA 15108,KENNEDY,40.493094179568494,-80.111416022788944,460001
0156S00032000000,1531 MEERSCHAUM LN CORAOPOLIS PA 15108,KENNEDY,40.481964503832614,-80.101332752443568,460001
0156E00264000000,66 HERBST RD CORAOPOLIS PA 15108,KENNEDY,40.487128249104423,-80.115525120242523,460001
0156D00245000000,107 BEECHWOOD CIR CORAOPOLIS PA 15108,KENNEDY,40.489513475097816,-80.100933218542394,460001
0156D00113000000,210 LONG RIDGE DR CORAOPOLIS PA 15108,KENNEDY,40.490448605696805,-80.103824558002515,460001
0156D00101000000,222 LONG RIDGE DR CORAOPOLIS PA 15108,KENNEDY,40.489575995203658,-80.103455305203738,460001
0156A00077000000,222 GRANDVIEW DR CORAOPOLIS PA 15108,KENNEDY,40.490685457166279,-80.114920319362000,460001
0155R00134000000,109 PARK PL MC KEES ROCKS PA 15136,KENNEDY,40.473310150945508,-80.106028531380687,460002
0155K00137000000,2010 CANYON DR MC KEES ROCKS PA 15136,KENNEDY,40.476091962051093,-80.111088937761025,460002
0155H00256000000,206 N VIREO DR MC KEES ROCKS PA 15136,KENNEDY,40.478458874511531,-80.101276024441944,460001
0155F00015000000,4009 FIRETHORN DR MC KEES ROCKS PA 15136,KENNEDY,40.478520069181556,-80.111214854103139,460002
0155C00008010200,1 CORAOPOLIS RD CORAOPOLIS PA 15108,KENNEDY,40.482259378211438,-80.107732964649713,460001
0155B00259000000,5005 WINDRIVER DR MC KEES ROCKS PA 15136,KENNEDY,40.479669675031040,-80.110390030868771,460002
0154S00108000000,19 ROOSEVELT DR MC KEES ROCKS PA 15136,KENNEDY,40.463391765677997,-80.102487382515022,460002
0154H00038000000,303 CORTLAND DR E MC KEES ROCKS PA 15136,KENNEDY,40.469078776365741,-80.102246352253587,460002
0154G00052000000,2019 CUTTER DR MC KEES ROCKS PA 15136,KENNEDY,40.468564384260048,-80.107541414896218,460002
0154F00301000000,3023 PITCHFORK LN MC KEES ROCKS PA 15136,KENNEDY,40.467573958239697,-80.110649392418466,460002
0154F00256000000,1094 FIDDLEBACK DR MC KEES ROCKS PA 15136,KENNEDY,40.469264630909514,-80.110654477951272,460002
0153J00248000000,107 MAGNOLIA DR MC KEES ROCKS PA 15136,ROBINSON,40.455405615054126,-80.115267558609773,459201
0153J00246000000,109 MAGNOLIA DR MC KEES ROCKS PA 15136,ROBINSON,40.455269264538622,-80.115389760406757,459201
0153J00210000000,136 ARBOR TRAIL DR MC KEES ROCKS PA 15136,ROBINSON,40.456845114458652,-80.113991458055168,459201
0151L00016000000,105 SAINT ANDREWS DR PITTSBURGH PA 15205,ROBINSON,40.437676708911859,-80.103770076021107,459201
0151G00105000000,401 HEATHER LN PITTSBURGH PA 15205,ROBINSON,40.440446896105044,-80.106903659937942,459201
0151C00334000000,3 GLENNVUE DR PITTSBURGH PA 15205,ROBINSON,40.442096373669798,-80.104705588783219,459201
0150S00096036200,1228 PENNSBURY BLVD PITTSBURGH PA 15205,PENNSBURY VILLAGE,40.426948397240068,-80.101706192873195,459202
0150S00096018300,234 COLONY CT PITTSBURGH PA 15205,PENNSBURY VILLAGE,40.428858603919466,-80.101228384266264,459202
0149M00074000000,1031-1033 CAMPBELLS RUN RD CARNEGIE PA 15106,ROBINSON,40.417836632733703,-80.099701746894411,459201
0148F00131000000,2117 CROGHAN DR CARNEGIE PA 15106,COLLIER,40.408983175351565,-80.110915346687634,458002
0148F00029000000,3006 EDINBURG CT CARNEGIE PA 15106,COLLIER,40.409457826451472,-80.108813587404470,458002
0148E00028000000,229 EWING RD CARNEGIE PA 15106,COLLIER,40.409273965795144,-80.114439912582228,458002
0146S00130000000,769 MARIGOLD CT BRIDGEVILLE PA 15017,COLLIER,40.385275837114698,-80.102039717084821,458001
0146S00108000000,791 MARIGOLD CT BRIDGEVILLE PA 15017,COLLIER,40.386649846252105,-80.101096095071483,458001
0146K01703000000,1703 GRAND CYPRESS LN PRESTO PA 15142,COLLIER,40.389403020907402,-80.111875191983742,458001
0146K01503000000,1503 GRAND CYPRESS LN PRESTO PA 15142,COLLIER,40.388760604216266,-80.111607168339575,458001
0146J01805000000,1805 GRAND CYPRESS LN PRESTO PA 15142,COLLIER,40.389123480365328,-80.112259069579807,458001
0146J00405000000,405 CHERRY HILL DR PRESTO PA 15142,COLLIER,40.388589598016146,-80.112878133081821,458001
0146F00059000000,2360 HILLTOP RD PRESTO PA 15142,COLLIER,40.391254718395501,-80.108387558237197,458001
0146E00019000000,4080 BRECKENRIDGE DR PRESTO PA 15142,COLLIER,40.391669923878617,-80.114350351406259,458001
0145S00025000000,5 SUMMER DR BRIDGEVILLE PA 15017,COLLIER,40.376681096785440,-80.102200894059592,458001
0145H00163000000,2008 BLACK BEAR WAY BRIDGEVILLE PA 15017,COLLIER,40.381776818151529,-80.101010949715686,458001
0144A00005000000,400 JONQUIL LN BRIDGEVILLE PA 15017,COLLIER,40.382963213142787,-80.099521229327877,458001
0143L00148000000,1251 MEADOWLARK DR PITTSBURGH PA 15243,SCOTT,40.377776781097985,-80.074198605967780,470300
0143L00016000000,1219 CARDINAL DR PITTSBURGH PA 15243,SCOTT,40.379625060814568,-80.073082357014769,470300
0143J00146000000,1407 MEADOWLARK DR PITTSBURGH PA 15243,SCOTT,40.377704432618721,-80.079886496802786,470300
0143H00354000000,986 SEGAR RD PITTSBURGH PA 15243,MT.LEBANON,40.381580861657518,-80.067276928494380,473601
0143F00210000000,1282 GROUSE DR PITTSBURGH PA 15243,SCOTT,40.381857034997751,-80.076530520985557,470300
0143D00004000000,1118 GROUSE DR PITTSBURGH PA 15243,SCOTT,40.382530640403409,-80.070247796961922,470300
0142R00235000000,734 HOLLYCREST DR PITTSBURGH PA 15228,MT.LEBANON,40.376786586941087,-80.054684377973871,473500
0142C00106000100,467 SERPENTINE DR PITTSBURGH PA 15243,MT.LEBANON,40.382335253190895,-80.053782365928427,473601
0142C00106000000,465 SERPENTINE DR PITTSBURGH PA 15243,MT.LEBANON,40.382425127003579,-80.053843555753829,473601
0141S00240000000,344 TAMPA AVE PITTSBURGH PA 15228,MT.LEBANON,40.375586649653236,-80.035487202296295,473300
0141C00199000000,905 PEERMONT AVE PITTSBURGH PA 15216,DORMONT,40.384597441164352,-80.037476688239778,472400
0141C00178000000,911 PARKSIDE AVE PITTSBURGH PA 15228,DORMONT,40.383779296509395,-80.037299618086422,472400
0140S00054000000,718 NEWPORT DR PITTSBURGH PA 15234,BALDWIN TWP,40.376301590445223,-80.017465674027520,479000
0140R00174000000,803 SLEEPY HOLLOW RD PITTSBURGH PA 15234,CASTLE SHANNON,40.375195282954451,-80.022068075566338,476100
0140P00158000000,505 MILBETH DR PITTSBURGH PA 15228,MT.LEBANON,40.377081010628515,-80.025366914824460,473300
0140J00036000000,311 JONQUIL PL PITTSBURGH PA 15228,MT.LEBANON,40.378707726793948,-80.032320075433333,473300
0140H00056000000,438 PEARCE RD PITTSBURGH PA 15234,BALDWIN TWP,40.381710304349774,-80.017657577901574,479000
0140H00042000000,424 PEARCE RD PITTSBURGH PA 15234,BALDWIN TWP,40.381829260416097,-80.018905073201424,479000
0140G00348000000,688 COUNTRY CLUB DR PITTSBURGH PA 15228,MT.LEBANON,40.381894459498618,-80.024666685447229,473300
0140G00342000000,682 COUNTRY CLUB DR PITTSBURGH PA 15228,MT.LEBANON,40.382431762747636,-80.023813652938017,473300
0140G00332000000,695 COUNTRY CLUB DR PITTSBURGH PA 15228,MT.LEBANON,40.381364253286954,-80.023728512116975,473300
0140F00040000000,406 SUMMIT DR PITTSBURGH PA 15228,MT.LEBANON,40.380909668540433,-80.026178600116324,473300
0140E00228000000,288 FIELDBROOK DR PITTSBURGH PA 15228,MT.LEBANON,40.380776275253140,-80.030246635497562,473300
0139P00150000000,828 LONDONDERRY DR PITTSBURGH PA 15234,CASTLE SHANNON,40.377016932793921,-80.010119495296536,476100
0139N00134000000,843 NEWPORT DR PITTSBURGH PA 15234,BALDWIN TWP,40.375970831078639,-80.013145835024247,479000
0139L00056000000,2216 ROMINE AVE PITTSBURGH PA 15226,BALDWIN TWP,40.379584669169716,-80.004258225150778,479000
0139L00052000000,2738 ROBERTSON AVE PITTSBURGH PA 15226,BALDWIN TWP,40.379203353682101,-80.004058595812907,479000
0139K00280000000,826 KERRY HILL DR PITTSBURGH PA 15234,CASTLE SHANNON,40.378162442300578,-80.010188867651422,476100
0139K00220000000,809 LONDONDERRY DR PITTSBURGH PA 15234,CASTLE SHANNON,40.377947514806273,-80.011540232284759,476100
0139K00048000000,962 HIGHVIEW RD PITTSBURGH PA 15234,BALDWIN TWP,40.378932615497419,-80.009342233818401,479000
0139K00015000000,959 HIGHVIEW RD PITTSBURGH PA 15234,BALDWIN TWP,40.379702786691908,-80.009648432536650,479000
0139F00141000000,106 AIDAN CT PITTSBURGH PA 15226,32ND WARD - PITTSBURGH,40.381789499726807,-80.011908786663042,191800
0139F00089000000,158 AIDAN CT PITTSBURGH PA 15226,32ND WARD - PITTSBURGH,40.380729504427954,-80.010384684796747,191800
0139E00080000000,718 ROSE LN PITTSBURGH PA 15234,BALDWIN TWP,40.381345835539491,-80.014510766529853,479000
0139E00050000000,721 ROSE LN PITTSBURGH PA 15234,BALDWIN TWP,40.381820812898845,-80.014273067986835,479000
0138R00070000000,3216 MAYFLOWER DR PITTSBURGH PA 15227,WHITEHALL,40.375390066286315,-79.987784127852365,477200
0138P00164000000,3067 WOODRIDGE DR PITTSBURGH PA 15227,WHITEHALL,40.376068396255505,-79.992641472502854,477200
0138D00044000000,309 MAYTIDE ST PITTSBURGH PA 15227,29TH WARD - PITTSBURGH,40.384294219844598,-79.984904903130015,290400
0137S00243000000,427 E GARDEN RD PITTSBURGH PA 15227,BRENTWOOD,40.375728747501881,-79.967715894165295,478200
0137S00225000000,409 E GARDEN RD PITTSBURGH PA 15227,BRENTWOOD,40.376567737617009,-79.968913551277609,478200
0137R00008000000,331 E GARDEN RD PITTSBURGH PA 15227,BRENTWOOD,40.377031758745069,-79.970632022241006,478200
0137P00225000000,3315 REGAN AVE PITTSBURGH PA 15227,BRENTWOOD,40.377266001255784,-79.977288517986239,478100
0137N00198000000,360 BRACKEN AVE PITTSBURGH PA 15227,BRENTWOOD,40.375823066872464,-79.981633487262386,478100
0137N00129000000,266 LAVETON AVE PITTSBURGH PA 15227,BRENTWOOD,40.377254051387951,-79.980207619311585,478100
0137N00118000000,3220 KESTNER AVE PITTSBURGH PA 15227,BRENTWOOD,40.377097383388254,-79.979030744995072,478100
0137M00101000000,336 E FRANCIS AVE PITTSBURGH PA 15227,BRENTWOOD,40.379693504123971,-79.968450994561806,478200
0137L00128000000,142 E FRANCIS AVE PITTSBURGH PA 15227,BRENTWOOD,40.378618383962447,-79.972225642387158,478200
0137K00260000000,51 W BELLECREST AVE PITTSBURGH PA 15227,BRENTWOOD,40.379273217888205,-79.977777379392990,478100
0137K00227000000,30 W FRANCIS AVE PITTSBURGH PA 15227,BRENTWOOD,40.379229144747029,-79.976757407604680,478100
0137K00132000000,32 W GARDEN RD PITTSBURGH PA 15227,BRENTWOOD,40.377996922009942,-79.976993380602622,478100
0137G00312000000,3127 ELROY AVE PITTSBURGH PA 15227,BRENTWOOD,40.379915281347678,-79.973229818316369,478200
0137G00288000000,3106-3108 GLENDALE AVE PITTSBURGH PA 15227,BRENTWOOD,40.380833625173715,-79.973248907271497,478200
0137G00185000000,3042 BRENTWOOD AVE PITTSBURGH PA 15227,BRENTWOOD,40.381526824381602,-79.972539457380847,478200
0137F00262000000,3008 CLERMONT AVE PITTSBURGH PA 15227,BRENTWOOD,40.381123508381229,-79.975316075677057,478200
0137E00350000000,62 GREENLEE RD PITTSBURGH PA 15227,BRENTWOOD,40.380172535196209,-79.978952867349122,478100
0137D00141000000,151 FORT PITT BLVD PITTSBURGH PA 15222,BALDWIN BORO,40.384220088302925,-79.968318584752566,480400
0137C00303000000,111-117 PENTLAND AVE PITTSBURGH PA 15227,BRENTWOOD,40.383897735620934,-79.972954924960405,478200
0137C00050000000,2952 BREVARD AVE PITTSBURGH PA 15227,BRENTWOOD,40.384385381206144,-79.971523805716231,478200
0137B00321000000,2803 BRENTWOOD AVE PITTSBURGH PA 15227,BRENTWOOD,40.384214608467161,-79.976089276986954,478200
0137B00299000000,2920 BRENTWOOD AVE PITTSBURGH PA 15227,BRENTWOOD,40.382736214329128,-79.974500979742913,478200
0137B00260000000,2823 CLERMONT AVE PITTSBURGH PA 15227,BRENTWOOD,40.383300089379183,-79.975907380511742,478200
0137A00282000000,139 CLAUS AVE PITTSBURGH PA 15227,29TH WARD - PITTSBURGH,40.382784515084133,-79.981367549589677,290400
0136J00099000000,3303 VILLAWOOD AVE PITTSBURGH PA 15227,BRENTWOOD,40.379401706443225,-79.965420410212630,478200
0136J00024000000,3323 SHADYWAY DR PITTSBURGH PA 15227,BRENTWOOD,40.378533006011992,-79.965391147402443,478200
0136H00074000000,127 KATHLEEN DR PITTSBURGH PA 15227,BALDWIN BORO,40.380641513604516,-79.952718860369927,480400
0136G00078000000,1202 PLEASANTVUE DR PITTSBURGH PA 15227,BALDWIN BORO,40.381472080079405,-79.956831149911750,480400
0136C00140000000,3368 CHURCHVIEW AVE PITTSBURGH PA 15227,BALDWIN BORO,40.383405843431916,-79.954624150442640,480400
0136A00322000000,3204 HAZELHURST AVE PITTSBURGH PA 15227,BALDWIN BORO,40.383202562740756,-79.965163201211766,480400
0135K00252000000,1219 IRENE LN PITTSBURGH PA 15236,BALDWIN BORO,40.379614887360177,-79.945005753111516,480400
0135F00010000000,1218 IRENE LN PITTSBURGH PA 15236,BALDWIN BORO,40.379902068789029,-79.944516468122146,480400
0134S00004000000,5056 GLENHURST RD PITTSBURGH PA 15207,31ST WARD - PITTSBURGH,40.375082555754723,-79.919102219133691,310200
0134H00270000000,4853 MOONEY RD HOMESTEAD PA 15120,31ST WARD - PITTSBURGH,40.379715667892860,-79.916151466553231,310200
0134D00026000000,4469 CASSABILL DR HOMESTEAD PA 15120,31ST WARD - PITTSBURGH,40.383529949584620,-79.919082260389061,565300
0133R00120000000,165 ROBERTA DR HOMESTEAD PA 15120,MUNHALL,40.376873153908910,-79.906363182215244,484500
0133L00191000000,216 ELIZABETH ST HOMESTEAD PA 15120,MUNHALL,40.377911520013605,-79.906271631484231,484500
0133L00081000000,4113 FAIRFIELD AVE HOMESTEAD PA 15120,MUNHALL,40.379815468365322,-79.904680641937745,484500
0133K00265000000,4608 OAKWOOD AVE HOMESTEAD PA 15120,MUNHALL,40.378618558546648,-79.909795133412317,484500
0133K00201000000,4631 MAIN ST HOMESTEAD PA 15120,MUNHALL,40.377373243301868,-79.908546091940167,484500
0133H00126000000,3928 HARVEY AVE HOMESTEAD PA 15120,MUNHALL,40.380488798250397,-79.902499439568217,484500
0133G00205000000,224 MERCER AVE HOMESTEAD PA 15120,MUNHALL,40.381365068393201,-79.907774057802158,484500
0133G00077000000,4023 DAVIS AVE HOMESTEAD PA 15120,MUNHALL,40.381033951436613,-79.904538335650756,484500
0133F00021000000,221 MERCER AVE HOMESTEAD PA 15120,MUNHALL,40.381075870660069,-79.908003192939447,484500
0133F00017000000,226 MERCER AVE HOMESTEAD PA 15120,MUNHALL,40.381425703458234,-79.907880500095430,484500
0133E00218000000,4730 HAMILTON RD HOMESTEAD PA 15120,MUNHALL,40.381031642634873,-79.912658986750387,484500
0133D00153000000,3925 CENTER AVE HOMESTEAD PA 15120,MUNHALL,40.382275810331763,-79.903006681362385,484500
0133C00240000000,3606 CAMBRIA ST HOMESTEAD PA 15120,MUNHALL,40.384593800276043,-79.907287960857829,484500
0133C00152000000,4003 MELVIN ST HOMESTEAD PA 15120,MUNHALL,40.382338026506581,-79.905609346783166,484500
0133A00055000000,3803 WEST RUN RD HOMESTEAD PA 15120,MUNHALL,40.382357371727679,-79.912110964997609,484500
0132R00294000000,3524 CAMBRIA ST HOMESTEAD PA 15120,MUNHALL,40.385853690342863,-79.907592786617229,484500
0132R00093000000,214 EMERSON AVE HOMESTEAD PA 15120,MUNHALL,40.385848992988677,-79.904854904091579,484500
0132R00085000000,200 EMERSON AVE HOMESTEAD PA 15120,MUNHALL,40.385692621700379,-79.904331112054322,484500
0132P00223000000,3477 YORK ST HOMESTEAD PA 15120,MUNHALL,40.386535723274598,-79.910219331039187,484500
0132M00197000000,126 W MILLER AVE HOMESTEAD PA 15120,MUNHALL,40.387813205272742,-79.903481043413606,484600
0132L00106000000,135 W MILLER AVE HOMESTEAD PA 15120,MUNHALL,40.387547049590715,-79.904036948355724,484500
0132K00095000000,3318 CAMBRIA ST HOMESTEAD PA 15120,MUNHALL,40.387203975594275,-79.907963562310456,484500
0132G00062000000,141 CARNOLD DR HOMESTEAD PA 15120,MUNHALL,40.390900933238612,-79.906096317305256,484600
0132E00178000000,0 OVERDALE DR HOMESTEAD PA 15120,WEST HOMESTEAD,40.390193158506470,-79.913734061662439,482500
0132B00276000000,1215 VIVJON DR HOMESTEAD PA 15120,WEST HOMESTEAD,40.392833705097033,-79.910721980637362,482500
0132B00093000000,1412 SCHAUFFLER DR HOMESTEAD PA 15120,WEST HOMESTEAD,40.393146790100360,-79.909653883291256,482500
0131F00273000000,318 W 13TH AVE HOMESTEAD PA 15120,HOMESTEAD,40.401132089191066,-79.910447299434963,483800
0131F00222000000,327 W 14TH AVE HOMESTEAD PA 15120,HOMESTEAD,40.400738312787020,-79.910291867849097,483800
0131E00342000000,1101 SYLVAN AVE HOMESTEAD PA 15120,HOMESTEAD,40.401406218511411,-79.913309648829937,483800
0131D00047000000,234 E 16TH AVE HOMESTEAD PA 15120,HOMESTEAD,40.402734851664270,-79.903191986605478,483800
0131D00043000000,228 E 16TH AVE HOMESTEAD PA 15120,HOMESTEAD,40.402649006523490,-79.903356666827762,483800
0131D00041000000,226 E 16TH AVE HOMESTEAD PA 15120,HOMESTEAD,40.402619613162337,-79.903415653553566,483800
0131D00010000000,1516 MCCLURE ST HOMESTEAD PA 15120,HOMESTEAD,40.403420115688959,-79.903180061991947,483800
0131C00380000000,208 E 16TH AVE HOMESTEAD PA 15120,HOMESTEAD,40.402334000777138,-79.903998085977278,483800
0131B00008000000,128 W 10TH AVE HOMESTEAD PA 15120,HOMESTEAD,40.404048896207300,-79.911230838222465,483800
0130R00237000000,1218 ANN ST HOMESTEAD PA 15120,HOMESTEAD,40.404477962502888,-79.906587620250249,483800
0130R00221000000,313 E 13TH AVE HOMESTEAD PA 15120,HOMESTEAD,40.404860337146857,-79.905948602216384,483800
0130P00207000000,129 W 10TH AVE HOMESTEAD PA 15120,HOMESTEAD,40.404340078701054,-79.911598236528079,483800
0129D00107000000,206-208 WHIPPLE ST PITTSBURGH PA 15218,14TH WARD - PITTSBURGH,40.421447169811849,-79.900048065721577,141100
0129A00100000000,22 ROSEMONT LN PITTSBURGH PA 15217,14TH WARD - PITTSBURGH,40.421775762337369,-79.915687227990276,141400
0128P00147000000,1106 FRICK LN PITTSBURGH PA 15217,14TH WARD - PITTSBURGH,40.424220224934857,-79.911124468460045,141400
0128N000270P2600,1240 CRESCENT PL PITTSBURGH PA 15217,14TH WARD - PITTSBURGH,40.423431987334475,-79.913455793400900,141400
0128J00210000000,2581 BEECHWOOD BLVD PITTSBURGH PA 15217,14TH WARD - PITTSBURGH,40.427999181022663,-79.915677057176978,140800
0128J00090000000,2622 MOUNT ROYAL RD PITTSBURGH PA 15217,14TH WARD - PITTSBURGH,40.427493535298304,-79.914686528084673,141400
0128J00088000000,2618 MOUNT ROYAL RD PITTSBURGH PA 15217,14TH WARD - PITTSBURGH,40.427692627135166,-79.914745537452859,141400
0128A00143000000,2207 IMPERIAL ST PITTSBURGH PA 15217,14TH WARD - PITTSBURGH,40.432346808848351,-79.913791291937613,140800
0128A00019000000,6353 WALDRON ST PITTSBURGH PA 15217,14TH WARD - PITTSBURGH,40.431930384069766,-79.916113039134999,140800
0127P00158000000,2091 BEECHWOOD BLVD PITTSBURGH PA 15217,14TH WARD - PITTSBURGH,40.435194012371184,-79.911656224101790,140800
0127N00235000000,2139 BEECHWOOD BLVD PITTSBURGH PA 15217,14TH WARD - PITTSBURGH,40.434986649972302,-79.912070381627004,140800
0127K00074000000,2006 BEECHWOOD BLVD PITTSBURGH PA 15217,14TH WARD - PITTSBURGH,40.436431367351254,-79.909305502943781,140800
0127J00149000000,6522 DARLINGTON RD PITTSBURGH PA 15217,14TH WARD - PITTSBURGH,40.436116259292817,-79.915383110203180,140800
0126R00105000000,7104 WILLARD ST PITTSBURGH PA 15208,14TH WARD - PITTSBURGH,40.445044739712067,-79.906293933727966,141200
0126N00310000000,6623 KINSMAN RD PITTSBURGH PA 15217,14TH WARD - PITTSBURGH,40.445426090972518,-79.914122445830060,140300
0126N00262000000,6688 KINSMAN RD PITTSBURGH PA 15217,14TH WARD - PITTSBURGH,40.445229286764977,-79.912391153775218,140300
0126N00222000000,6633 WOODWELL ST PITTSBURGH PA 15217,14TH WARD - PITTSBURGH,40.444584011795357,-79.914198456867936,140300
0126N00206000000,6601-6603 WOODWELL ST PITTSBURGH PA 15217,14TH WARD - PITTSBURGH,40.444389323745028,-79.915316316774906,140300
0126N00176000000,6654-6656 WOODWELL ST PITTSBURGH PA 15217,14TH WARD - PITTSBURGH,40.444287133555086,-79.913284897319684,140300
0126N00103000000,6630 RIDGEVILLE ST PITTSBURGH PA 15217,14TH WARD - PITTSBURGH,40.443407809900251,-79.913994217980857,140300
0126N00097000000,6640 RIDGEVILLE ST PITTSBURGH PA 15217,14TH WARD - PITTSBURGH,40.443482069642563,-79.913570503572302,140300
0126N00056000000,6629-6633 NORTHUMBERLAND ST PITTSBURGH PA 15217,14TH WARD - PITTSBURGH,40.443111066824272,-79.913827606359689,140300
0126L00057000000,324 LEROI RD PITTSBURGH PA 15208,14TH WARD - PITTSBURGH,40.447561604092613,-79.904643167306915,141200
0126K00027000000,450 S DALLAS AVE PITTSBURGH PA 15208,14TH WARD - PITTSBURGH,40.447561674135095,-79.911344865449038,140400
0126J00185000000,552 GLEN ARDEN DR PITTSBURGH PA 15208,14TH WARD - PITTSBURGH,40.447065869306520,-79.913410898946111,140400
0126J00145000000,6637 WILKINS AVE PITTSBURGH PA 15217,14TH WARD - PITTSBURGH,40.446185556831651,-79.914919048025141,140400
0126G00316000000,217 S LANG AVE PITTSBURGH PA 15208,14TH WARD - PITTSBURGH,40.448372678901166,-79.904705914594729,141200
0126F00250000000,405 S DALLAS AVE PITTSBURGH PA 15208,14TH WARD - PITTSBURGH,40.448441699176435,-79.910022441827707,141200
0126F00146000000,329 S DALLAS AVE PITTSBURGH PA 15208,14TH WARD - PITTSBURGH,40.448738924726825,-79.909604868688589,141200
0126E00209000000,516 S LINDEN AVE PITTSBURGH PA 15208,14TH WARD - PITTSBURGH,40.448205566535627,-79.914770942117073,140400
0126E00037000000,517 GETTYSBURG ST PITTSBURGH PA 15206,14TH WARD - PITTSBURGH,40.449150454954406,-79.915633959123113,140400
0126A00154000000,305 ELYSIAN ST PITTSBURGH PA 15206,14TH WARD - PITTSBURGH,40.451756243637590,-79.913550378638945,140400
0126A00113000000,302 ELYSIAN ST PITTSBURGH PA 15206,14TH WARD - PITTSBURGH,40.451742115255769,-79.914057379867231,140400
0125R00174000000,6955-6957 MCPHERSON BLVD PITTSBURGH PA 15208,14TH WARD - PITTSBURGH,40.453736272685987,-79.904147983984657,140500
0125P00092000000,6807 THOMAS BLVD PITTSBURGH PA 15208,14TH WARD - PITTSBURGH,40.454093628444838,-79.908291561326280,140500
0124M00354000000,6651 HEDGE ST PITTSBURGH PA 15206,12TH WARD - PITTSBURGH,40.466577936439386,-79.900800757214995,120300
0124E00205000000,6318 SAINT MARIE ST PITTSBURGH PA 15206,11TH WARD - PITTSBURGH,40.467729563504129,-79.915441134648546,110600
0124C00028000000,6317 DEAN ST PITTSBURGH PA 15206,12TH WARD - PITTSBURGH,40.469989015999779,-79.906570751272810,120300
0124A00247000000,962 WELLESLEY RD PITTSBURGH PA 15206,11TH WARD - PITTSBURGH,40.471314711380082,-79.914448335444703,110600
0122D00318000000,205 EASTERN AVE PITTSBURGH PA 15215,ASPINWALL,40.491502926932441,-79.902902484052078,423000
0122D00298000000,202 EASTERN AVE PITTSBURGH PA 15215,ASPINWALL,40.491042021082109,-79.902527077752524,423000
0122D00294000000,315 2ND ST PITTSBURGH PA 15215,ASPINWALL,40.490989898746683,-79.902082847997022,423000
0122D00048000000,109 EMERSON AVE PITTSBURGH PA 15215,ASPINWALL,40.489299004484657,-79.900351915632442,423000
0121G00058000000,7309 BUTLER ST PITTSBURGH PA 15206,10TH WARD - PITTSBURGH,40.488266446835226,-79.920917124128863,101400
0120P00139000000,236 57TH ST PITTSBURGH PA 15201,10TH WARD - PITTSBURGH,40.483608042998021,-79.944898952011755,101100
0120N00015002300,5575 BUTLER ST PITTSBURGH PA 15201,10TH WARD - PITTSBURGH,40.484329850573737,-79.948858468582543,101100
0120N00015002100,5571 BUTLER ST PITTSBURGH PA 15201,10TH WARD - PITTSBURGH,40.484234811735689,-79.948790042056515,101100
0120N00015001700,5551 BUTLER ST PITTSBURGH PA 15201,10TH WARD - PITTSBURGH,40.484137865839628,-79.949006841998795,101100
0120K00018000000,211 57TH ST PITTSBURGH PA 15201,10TH WARD - PITTSBURGH,40.484671058300961,-79.944827328855467,101800
0119S00057000A00,5339 CARNEGIE ST PITTSBURGH PA 15201,10TH WARD - PITTSBURGH,40.482330838149892,-79.950753738857671,101100
0119N00300000000,412 HEIGHTS DR PITTSBURGH PA 15209,SHALER,40.482624712039978,-79.964938495411815,427200
0119F00096000000,425-427 FRIDAY RD PITTSBURGH PA 15209,SHALER,40.488152673788136,-79.961749847936986,427200
0118C00093000000,908 EVERGREEN AVE PITTSBURGH PA 15209,MILLVALE,40.489417269424209,-79.971786947157028,427000
0117B00085000000,3697 MOUNT TROY RD PITTSBURGH PA 15212,RESERVE,40.490651087803414,-79.992360875400223,428200
0116M00026000000,325 FABER ST PITTSBURGH PA 15214,RESERVE,40.486321750497929,-80.000326485976871,428200
0116H00136000000,6014 HAWTHORN DR CORAOPOLIS PA 15108,MOON,40.488062318339395,-80.003404526063022,428200
0116H00134000000,37 ARLOR DR PITTSBURGH PA 15214,RESERVE,40.488259759589020,-80.003436400678879,428200
0115H00058000000,3827-3829 PERRYSVILLE AVE PITTSBURGH PA 15214,26TH WARD - PITTSBURGH,40.487903118984690,-80.016704493421685,260200
0114D00218000000,132 SAN PEDRO PL PITTSBURGH PA 15212,ROSS,40.490797739903179,-80.036460169300554,429700
0114D00173000000,826 BENTON AVE PITTSBURGH PA 15212,27TH WARD - PITTSBURGH,40.490183876130658,-80.035565361802867,270800
0113B00056000000,230 W RIVERVIEW AVE PITTSBURGH PA 15202,BELLEVUE,40.490521411624314,-80.058965329683858,431500
0112R00240000000,1335 STOWE AVE MC KEES ROCKS PA 15136,STOWE,40.482871578760594,-80.071607159925620,462100
0112P00241000000,310 WHEELER AVE MC KEES ROCKS PA 15136,STOWE,40.483713694677171,-80.076853426353892,462100
0111S00198000000,217 BARBARA DR MC KEES ROCKS PA 15136,KENNEDY,40.483196439640309,-80.086756608844112,460001
0111M00389000000,20 GORDON ST MC KEES ROCKS PA 15136,STOWE,40.485274770212271,-80.082882304857122,462100
0111L00138000C00,148 TERRA DR MC KEES ROCKS PA 15136,KENNEDY,40.485499589027214,-80.088927084410003,460001
0110H00042000000,223 HESTER AVE MC KEES ROCKS PA 15136,STOWE,40.478428181742210,-80.083361895710254,462600
0110E00009000000,1034 MCCOY RD MC KEES ROCKS PA 15136,KENNEDY,40.477370890977681,-80.096378387770443,460001
0110A00101000000,148 N VIREO DR MC KEES ROCKS PA 15136,KENNEDY,40.481607694442509,-80.097218492447183,460001
0110A00083000000,142 N VIREO DR MC KEES ROCKS PA 15136,KENNEDY,40.481342508474668,-80.096473761686468,460001
0109H00226000000,142 LOCUST ST MC KEES ROCKS PA 15136,KENNEDY,40.469731004976119,-80.084754315081511,460002
0106S00072000000,1120 HARVARD RD PITTSBURGH PA 15205,THORNBURG,40.433875209406473,-80.083886132100872,564100
0106M00275000000,1204 LEHIGH RD PITTSBURGH PA 15205,THORNBURG,40.437022841810396,-80.086078358544427,564100
0106G00187000000,4199 STEUBENVILLE PIKE PITTSBURGH PA 15205,ROBINSON,40.439400326785787,-80.088037397231730,459201
0105L00175000000,32 CLUB RD CARNEGIE PA 15106,ROSSLYN FARMS,40.426609202610571,-80.090774803868655,564100
0105E00242000000,300 CHRISTOPHER CIR PITTSBURGH PA 15205,ROBINSON,40.429943601010926,-80.097324134170435,459201
0105E00032067400,674 WOODCREST DR PITTSBURGH PA 15205,ROBINSON,40.430337639192210,-80.094904116747827,459201
0105E00032050300,503 THORNCLIFFE DR PITTSBURGH PA 15205,ROBINSON,40.432191240695360,-80.094591870939652,459201
0105D00234000000,624 SMITH LN PITTSBURGH PA 15205,THORNBURG,40.431640527675484,-80.086081425141643,564100
0104S00236000000,524 MORROW AVE CARNEGIE PA 15106,CARNEGIE,40.414217225810653,-80.085064345985955,468700
0104P00086000000,526 REAMER AVE CARNEGIE PA 15106,CARNEGIE,40.415334823779055,-80.092732845162800,468700
0104J00181000000,717 REAMER AVE CARNEGIE PA 15106,CARNEGIE,40.417911446025471,-80.096285082669795,468700
0104H00275000000,0 ANGORA RD CARNEGIE PA 15106,ROSSLYN FARMS,40.418891773977748,-80.084610876861191,564100
0104G00204000000,207 KINGS HWY CARNEGIE PA 15106,ROSSLYN FARMS,40.421111621468818,-80.090864618199660,564100
0104F00004000000,104 ALDEN RD CARNEGIE PA 15106,ROSSLYN FARMS,40.420931814152546,-80.091139018614626,564100
0104B00179000000,6 REVERE RD CARNEGIE PA 15106,ROSSLYN FARMS,40.422100149443501,-80.094957238675363,564100
0103S00150000000,501 BEECHWOOD AVE CARNEGIE PA 15106,CARNEGIE,40.405321779224330,-80.085016156898774,468900
0103S00090000000,430 BEECHWOOD AVE CARNEGIE PA 15106,CARNEGIE,40.406196853034878,-80.085583668372564,468900
0103N00310000100,715 CUBBAGE ST CARNEGIE PA 15106,CARNEGIE,40.406053599206771,-80.098221932068398,468800
0103N00120000000,501 7TH AVE CARNEGIE PA 15106,CARNEGIE,40.405452175693632,-80.095246514645012,468800
0103L00256000000,200 5TH AVE CARNEGIE PA 15106,CARNEGIE,40.407104439349141,-80.090988276391698,468800
0103L00234000000,115 5TH AVE CARNEGIE PA 15106,CARNEGIE,40.407097015241575,-80.090255872023207,468800
0103K00196000000,325 7TH AVE CARNEGIE PA 15106,CARNEGIE,40.406902117905133,-80.093659075416610,468800
0103G00187000000,334 MORROW AVE CARNEGIE PA 15106,CARNEGIE,40.411372339608455,-80.087298939040693,468700
0103G00136000000,219 RAILROAD AVE CARNEGIE PA 15106,CARNEGIE,40.409815517211854,-80.090911839282441,468700
0103F00132000000,286 LEXINGTON CT CARNEGIE PA 15106,CARNEGIE,40.410027597537976,-80.091675927455896,468700
0103E00338000000,380 SUNRISE DR CARNEGIE PA 15106,CARNEGIE,40.410610735656995,-80.099217451403689,468800
0103E00296000000,359 SUNRISE DR CARNEGIE PA 15106,CARNEGIE,40.410710015026339,-80.098433540000940,468800
0103E00240000600,113 CATHEDRAL CT CARNEGIE PA 15106,CARNEGIE,40.409655701404994,-80.096094690441348,468800
0103C00042000000,321 CENTER AVE CARNEGIE PA 15106,CARNEGIE,40.411737088670513,-80.089940911481449,468700
0103A00205000000,170 MOUNTAIN DR CARNEGIE PA 15106,CARNEGIE,40.411704933427821,-80.097953638597545,468800
0103A00183000000,192 MOUNTAIN DR CARNEGIE PA 15106,CARNEGIE,40.412235605150840,-80.098939022516163,468800
0102L00359000000,543 CENTER ST CARNEGIE PA 15106,SCOTT,40.398097116315412,-80.087482898114075,470600
0102K00007000000,505 ORCHARD ST CARNEGIE PA 15106,SCOTT,40.398142382003975,-80.095100373529178,470600
0102J00034000000,523 ORCHARD ST CARNEGIE PA 15106,SCOTT,40.397657298331659,-80.095535235899078,470600
0102G00192000000,435 KISMET ST CARNEGIE PA 15106,SCOTT,40.399701672464445,-80.088921852910886,470600
0102B00030000000,406 2ND AVE CARNEGIE PA 15106,CARNEGIE,40.402649327644362,-80.091162240312670,468800
0102A00086000000,711 LOGAN ST CARNEGIE PA 15106,CARNEGIE,40.402103997152224,-80.095527572329118,468800
0102A00010000000,514-516 CUBBAGE ST CARNEGIE PA 15106,CARNEGIE,40.403712371242833,-80.096102466420575,468800
0101J00060000000,1595 COLLIER AVE CARNEGIE PA 15106,HEIDELBERG,40.389151184327957,-80.096824741582324,471000
0100R00008000000,1006 OSAGE RD PITTSBURGH PA 15243,MT.LEBANON,40.386178130432192,-80.070577756599562,473601
0100C00206000000,417 FOXWOOD LN PITTSBURGH PA 15220,SCOTT,40.393971710292014,-80.073550948461062,470502
0100C00050802500,2120 GREENTREE RD PITTSBURGH PA 15220,SCOTT,40.392333252907854,-80.071404751737575,470502
0099S00198000000,431-433 MARIETTA PL PITTSBURGH PA 15228,MT.LEBANON,40.384815434309928,-80.051674913170572,473200
0099P00157000000,137 OAK PARK PL PITTSBURGH PA 15243,MT.LEBANON,40.386539048127879,-80.059426470520975,473601
0099P00060000000,704 PINOAK RD PITTSBURGH PA 15243,MT.LEBANON,40.384796534468229,-80.061884325891882,473601
0099M00268000000,421 ARDEN RD PITTSBURGH PA 15216,MT.LEBANON,40.388713057569980,-80.053234978431718,473100
0099F00144000000,464 MORRISON DR PITTSBURGH PA 15216,MT.LEBANON,40.390616775589997,-80.058476629829499,473100
0099F00058060500,1500 COCHRAN RD PITTSBURGH PA 15243,SCOTT,40.391580922410355,-80.057530564754472,470501
0099F00058040500,1500 COCHRAN RD PITTSBURGH PA 15243,SCOTT,40.391614901223463,-80.057073402843699,470501
0099E00174000000,708 PINETREE RD PITTSBURGH PA 15243,MT.LEBANON,40.391548562319628,-80.064311064802169,473601
0099D00056000000,315 DIXON AVE PITTSBURGH PA 15216,MT.LEBANON,40.393472065099665,-80.053153570017528,473100
0099B00095002700,5008 ALDEN DR PITTSBURGH PA 15220,SCOTT,40.392684127893105,-80.060631524656799,470501
0098S00093000000,1015 BILTMORE AVE PITTSBURGH PA 15216,DORMONT,40.386976856419778,-80.036075131286822,472400
0098S00048000000,3257 BEACON HILL AVE PITTSBURGH PA 15216,DORMONT,40.385435890007948,-80.036828443424213,472400
0098S00044000000,3253 BEACON HILL AVE PITTSBURGH PA 15216,DORMONT,40.385545893923847,-80.036671625533913,472400
0098R00267000000,1050 PEERMONT AVE PITTSBURGH PA 15216,DORMONT,40.386312476519464,-80.038721030597529,472400
0098R00262000000,1108 PEERMONT AVE PITTSBURGH PA 15216,DORMONT,40.386627350665947,-80.039108170579937,472400
0098R00247000000,1141 PEERMONT AVE PITTSBURGH PA 15216,DORMONT,40.386877337828508,-80.040326951128662,472400
0098R00207000000,3301 BEACON HILL AVE PITTSBURGH PA 15216,DORMONT,40.384836113179510,-80.037753982050290,472400
0098R00085000000,3318 EASTMONT AVE PITTSBURGH PA 15216,DORMONT,40.385468489758544,-80.039039076756751,472400
0098M00320000000,1043 BILTMORE AVE PITTSBURGH PA 15216,DORMONT,40.387364277700051,-80.036530515582470,472400
0098M00177000000,3001 DELWOOD AVE PITTSBURGH PA 15216,DORMONT,40.389330108844746,-80.034676779477607,472400
0098M00154000000,3090 EASTMONT AVE PITTSBURGH PA 15216,DORMONT,40.387869375144888,-80.035584268152732,472400
0098L00369000000,1148 PEERMONT AVE PITTSBURGH PA 15216,DORMONT,40.387434594475465,-80.040038995392436,472400
0098L00345000000,3218 LATONIA AVE PITTSBURGH PA 15216,DORMONT,40.387556412413879,-80.037481324366823,472400
0098L00312000000,3215 PIEDMONT AVE PITTSBURGH PA 15216,DORMONT,40.387934421326335,-80.037630379582367,472400
0098L00264000000,3255 PINEHURST AVE PITTSBURGH PA 15216,DORMONT,40.387738118111933,-80.039397678109367,472400
0098L00242000000,3221 PINEHURST AVE PITTSBURGH PA 15216,DORMONT,40.388382953773480,-80.038454701604095,472400
0098L00219000000,3238 PINEHURST AVE PITTSBURGH PA 15216,DORMONT,40.388360513518442,-80.039289744994676,472400
0098K00037000000,1225 PEERMONT AVE PITTSBURGH PA 15216,DORMONT,40.387728442213714,-80.041198762809245,472400
0098J00188000000,319 MARTIN AVE PITTSBURGH PA 15216,MT.LEBANON,40.388183050378771,-80.045191911028155,473100
0098H00142000000,1104 HILLSDALE AVE PITTSBURGH PA 15216,DORMONT,40.389990826248024,-80.033361786660905,472300
0098H00100000000,1222 HILLSDALE AVE PITTSBURGH PA 15216,DORMONT,40.391553065431154,-80.034664455646450,472300
0098H00085000000,1231 WISCONSIN AVE PITTSBURGH PA 15216,DORMONT,40.391807892755565,-80.034303906702675,472300
0098G00147000000,3218 WAINBELL AVE PITTSBURGH PA 15216,DORMONT,40.389821446208231,-80.040096574986435,472400
0098G00054000000,1432 PARK BLVD PITTSBURGH PA 15216,DORMONT,40.391974986496614,-80.039790038182105,472200
0098F00113000000,1423 TOLMA AVE PITTSBURGH PA 15216,DORMONT,40.390797275425818,-80.042593114473007,472200
0098F00067000000,1476 MCFARLAND RD PITTSBURGH PA 15216,DORMONT,40.390883475070829,-80.043769550417423,472200
0098F00004000000,1457 MERVIN AVE PITTSBURGH PA 15216,DORMONT,40.391001463389621,-80.043466087092995,472200
0098E00238000000,238 DELL AVE PITTSBURGH PA 15216,MT.LEBANON,40.390583080197558,-80.046213366937948,473100
0098D00261000000,1248-1250 HILLSDALE AVE PITTSBURGH PA 15216,DORMONT,40.392105068023724,-80.035317023009455,472300
0098C00265000000,1476 DORMONT AVE PITTSBURGH PA 15216,DORMONT,40.393609726246943,-80.039944509908509,472200
0098A00356000000,115 PARKER DR PITTSBURGH PA 15216,MT.LEBANON,40.392455957606792,-80.046196281869058,473100
0098A00017000000,1644 MCFARLAND RD PITTSBURGH PA 15216,DORMONT,40.394278806359360,-80.046063790996911,472200
0097S00094000000,762 HILL ST PITTSBURGH PA 15226,BALDWIN TWP,40.386121180709523,-80.018620869155086,479000
0097M00122000000,2746 QUEENSBORO AVE PITTSBURGH PA 15226,19TH WARD - PITTSBURGH,40.389409545771926,-80.020101022017855,191800
0097L00200000000,2787 QUEENSBORO AVE PITTSBURGH PA 15226,BALDWIN TWP,40.387896461106671,-80.021179849325847,479000
0097H00248000000,948 WOODBOURNE AVE PITTSBURGH PA 15226,19TH WARD - PITTSBURGH,40.390706169300088,-80.019501159996736,191800
0097H00205000000,1030 WOODBOURNE AVE PITTSBURGH PA 15226,19TH WARD - PITTSBURGH,40.389552963857156,-80.017905031619918,191800
0097E00041000000,1101 ARKANSAS AVE PITTSBURGH PA 15216,DORMONT,40.391009650404101,-80.029767503886589,472300
0097A00164000000,1206 ARKANSAS AVE PITTSBURGH PA 15216,DORMONT,40.392538434458856,-80.030110550427239,472300
0097A00139000000,1250 ARKANSAS AVE PITTSBURGH PA 15216,DORMONT,40.393598710737244,-80.030703062997830,472300
0096S00135000000,102 GLENBURY ST PITTSBURGH PA 15234,32ND WARD - PITTSBURGH,40.386924713621568,-80.001776519357293,320700
0096S00031000000,66 BRIGGS ST PITTSBURGH PA 15234,32ND WARD - PITTSBURGH,40.386612847719412,-79.999601718554587,320700
0096P00099000000,1569 CHELTON AVE PITTSBURGH PA 15226,19TH WARD - PITTSBURGH,40.385847283420340,-80.010630160230491,191800
0096N00246000000,1504 BELTRAM AVE PITTSBURGH PA 15226,BALDWIN TWP,40.385101504610731,-80.014249214963627,479000
0096K00224000000,1621 CREEDMOOR AVE PITTSBURGH PA 15226,19TH WARD - PITTSBURGH,40.387841367416627,-80.009972194005556,191800
0096J00206000000,1510 BERKSHIRE AVE PITTSBURGH PA 15226,19TH WARD - PITTSBURGH,40.387224501087907,-80.013102871301584,191800
0096H00106000000,2044 JACOB ST PITTSBURGH PA 15226,32ND WARD - PITTSBURGH,40.391445452634251,-79.999624722418517,320600
0096B00211000000,1409 BROOKLINE BLVD PITTSBURGH PA 15226,32ND WARD - PITTSBURGH,40.392579111522359,-80.008839976048407,320600
0095R00174000000,428 ANTENOR AVE PITTSBURGH PA 15210,29TH WARD - PITTSBURGH,40.385173830627899,-79.990551092904838,320400
0095M00251000000,2311 VALERA AVE PITTSBURGH PA 15210,29TH WARD - PITTSBURGH,40.387762722152928,-79.986842909523403,290400
0095L00202000000,2258 ALMONT ST PITTSBURGH PA 15210,29TH WARD - PITTSBURGH,40.389157703221514,-79.989131582263539,290400
0095G00126000000,2247 VALERA AVE PITTSBURGH PA 15210,29TH WARD - PITTSBURGH,40.389869015393643,-79.987920470289325,290400
0095G00059000000,0 PARKFIELD ST PITTSBURGH PA 15210,29TH WARD - PITTSBURGH,40.391537002585039,-79.987906420962616,290100
0095G00057000000,0 PARKFIELD ST PITTSBURGH PA 15210,29TH WARD - PITTSBURGH,40.391532197126814,-79.988085970251262,290100
0095G00055000000,0 PARKFIELD ST PITTSBURGH PA 15210,29TH WARD - PITTSBURGH,40.391530861324817,-79.988230371217398,290100
0095F00089000000,2084 WALTON AVE PITTSBURGH PA 15210,32ND WARD - PITTSBURGH,40.391242140580445,-79.994328289346370,320400
0095D00198000000,145 E WOODFORD AVE PITTSBURGH PA 15210,29TH WARD - PITTSBURGH,40.393212558831088,-79.983096728764650,290200
0095D00099000000,118 MADELINE ST PITTSBURGH PA 15210,29TH WARD - PITTSBURGH,40.393848535598472,-79.984285953928037,290200
0094R00189000000,2967 RUTHWOOD AVE PITTSBURGH PA 15227,BALDWIN BORO,40.386631034928406,-79.971724895532006,480300
0094N00228000000,2445 VALERA AVE PITTSBURGH PA 15210,29TH WARD - PITTSBURGH,40.385542453178786,-79.982352361584518,290400
0094K00164000000,170 KIRK AVE PITTSBURGH PA 15227,29TH WARD - PITTSBURGH,40.387905036783806,-79.976649277145867,290400
0094H00190000000,221 MEADOWDELL DR PITTSBURGH PA 15227,BALDWIN BORO,40.391729729400602,-79.970258974218794,480300
0094G00237000000,2816 SOULIER ST PITTSBURGH PA 15227,BALDWIN BORO,40.390883438903224,-79.971331378863908,480300
0094G00230000000,2808 SOULIER ST PITTSBURGH PA 15227,BALDWIN BORO,40.390702566670058,-79.971683900222445,480300
0094G00210000000,2804 WATERMAN AVE PITTSBURGH PA 15227,BALDWIN BORO,40.391808160520924,-79.973005461709818,480300
0094F00052000000,2500 WATERMAN AVE PITTSBURGH PA 15227,29TH WARD - PITTSBURGH,40.390978233559160,-79.978172566963508,290400
0094A00226000000,0 BECKS RUN RD PITTSBURGH PA 15210,29TH WARD - PITTSBURGH,40.393313741630976,-79.979419220001603,290400
0093R00240000000,40 HARTL LN PITTSBURGH PA 15227,BALDWIN BORO,40.385273720025410,-79.956308646711449,480400
0093N00030000000,3136 SCHIECK ST PITTSBURGH PA 15227,BALDWIN BORO,40.386887613235359,-79.963907349855063,480400
0093L00316000000,180 GREEN GLEN DR PITTSBURGH PA 15227,BALDWIN BORO,40.388152709336325,-79.954695150933830,480400
0093B00070000000,1252 CAMARTA DR PITTSBURGH PA 15227,BALDWIN BORO,40.393429500152401,-79.958535830614963,480300
0093A00120000000,151 FORT PITT BLVD PITTSBURGH PA 15222,BALDWIN BORO,40.393327090568434,-79.962698038642017,480300
0092P00063000000,30 REVO RD PITTSBURGH PA 15236,BALDWIN BORO,40.384739251981188,-79.943259506032646,480400
0092E00005000000,151 FORT PITT BLVD PITTSBURGH PA 15222,BALDWIN BORO,40.389412905193367,-79.949394312253617,480400
0091S00124000000,140 MAPLEDALE DR HOMESTEAD PA 15120,MUNHALL,40.385367739727826,-79.916416977979978,484500
0091J00015000000,353 BALDWIN RD PITTSBURGH PA 15207,31ST WARD - PITTSBURGH,40.388348268390537,-79.932321058034489,565300
0088M00072000000,1633 OVERTON LN PITTSBURGH PA 15217,14TH WARD - PITTSBURGH,40.418211366568997,-79.919294118161545,141400
0088H00165000000,228 BURKETON LN PITTSBURGH PA 15217,14TH WARD - PITTSBURGH,40.418870928791094,-79.918725336288873,141400
0088H00148000000,112 OVERTON LN PITTSBURGH PA 15217,14TH WARD - PITTSBURGH,40.419403807988118,-79.916787964740791,141400
0088D00308000000,17 ROSEMONT LN PITTSBURGH PA 15217,14TH WARD - PITTSBURGH,40.422143253605675,-79.916308250406161,141400
0088D00078000000,129 GILDA AVE PITTSBURGH PA 15217,14TH WARD - PITTSBURGH,40.422555989808650,-79.916649555895376,141400
0087R00081000000,6382 EBDY ST PITTSBURGH PA 15217,14TH WARD - PITTSBURGH,40.424175602958286,-79.921106164638161,141400
0087L00117000000,5880 BURCHFIELD AVE PITTSBURGH PA 15217,14TH WARD - PITTSBURGH,40.426145497968953,-79.924420817129445,141400
0087L00108000000,2842 SHADY AVE PITTSBURGH PA 15217,14TH WARD - PITTSBURGH,40.426459343050475,-79.923721109568660,141400
0087L00073000000,5854-5860 MORROWFIELD AVE PITTSBURGH PA 15217,14TH WARD - PITTSBURGH,40.427166442653366,-79.923288361677876,141400
0087K00161000000,5870 BURCHFIELD AVE PITTSBURGH PA 15217,14TH WARD - PITTSBURGH,40.426232031405902,-79.924802711999263,141400
0087J00266000A00,950 MIRROR ST PITTSBURGH PA 15217,15TH WARD - PITTSBURGH,40.426467650819816,-79.931065930115281,151700
0087G00111000000,6324 FORWARD AVE PITTSBURGH PA 15217,14TH WARD - PITTSBURGH,40.428687111964216,-79.920465356334731,141400
0087D00107000000,5921-5923 NICHOLSON ST PITTSBURGH PA 15217,14TH WARD - PITTSBURGH,40.431636794525559,-79.919639613073088,140800
0087C00093000000,2306 MURRAY AVE PITTSBURGH PA 15217,14TH WARD - PITTSBURGH,40.431413235270746,-79.923590344665044,141300
0087C00092000000,2302 MURRAY AVE PITTSBURGH PA 15217,14TH WARD - PITTSBURGH,40.431500252886345,-79.923573378008541,141300
0086S00135000000,6335 DOUGLAS ST PITTSBURGH PA 15217,14TH WARD - PITTSBURGH,40.433998251515490,-79.917142794171923,140800
0086S00131000000,6345 DOUGLAS ST PITTSBURGH PA 15217,14TH WARD - PITTSBURGH,40.434023139280534,-79.916799592709282,140800
0086R00082000000,5720 MUNHALL RD PITTSBURGH PA 15217,14TH WARD - PITTSBURGH,40.434091811879455,-79.924472768308945,141300
0086M00200000000,6338 DARLINGTON RD,14TH WARD - PITTSBURGH,40.436674592763637,-79.917832589679037,140800
0086M00200000000,6338 DARLINGTON RD PITTSBURGH PA 15217,14TH WARD - PITTSBURGH,40.436674592763637,-79.917832589679037,140800
0086M00118000000,1726 DENNISTON ST PITTSBURGH PA 15217,14TH WARD - PITTSBURGH,40.437349529695005,-79.917851455994835,140800
0086J00203000000,1718 MURDOCH RD PITTSBURGH PA 15217,14TH WARD - PITTSBURGH,40.437244679279154,-79.931072515211582,141300
0086J00095000000,5426 DARLINGTON RD PITTSBURGH PA 15217,14TH WARD - PITTSBURGH,40.435721762041680,-79.932187760877142,141300
0086J00040000000,5532 DARLINGTON RD PITTSBURGH PA 15217,14TH WARD - PITTSBURGH,40.436421780049407,-79.929286496479179,141300
0086H00282000000,1606 BEECHWOOD BLVD PITTSBURGH PA 15217,14TH WARD - PITTSBURGH,40.440307478639923,-79.917016615024949,140300
0086H00031000000,5869 MARLBOROUGH AVE PITTSBURGH PA 15217,14TH WARD - PITTSBURGH,40.439290039395104,-79.920220933930239,140300
0086G00009000000,1533 VALMONT ST PITTSBURGH PA 15217,14TH WARD - PITTSBURGH,40.440297560543911,-79.923928192957817,140300
0086F00081000000,1528 S NEGLEY AVE PITTSBURGH PA 15217,14TH WARD - PITTSBURGH,40.440428151802237,-79.925750416577756,140300
0086D00261000000,1463 BEECHWOOD BLVD PITTSBURGH PA 15217,14TH WARD - PITTSBURGH,40.442710180744278,-79.916858117042352,140300
0086D00151000000,1439 DENNISTON ST PITTSBURGH PA 15217,14TH WARD - PITTSBURGH,40.442578646745062,-79.918374922899247,140300
0086C00208000000,5825 NORTHUMBERLAND ST PITTSBURGH PA 15217,14TH WARD - PITTSBURGH,40.441876954939808,-79.922496478588826,140300
0086C00047000000,5731 NORTHUMBERLAND ST PITTSBURGH PA 15217,14TH WARD - PITTSBURGH,40.441579143672598,-79.924301320145801,140300
0086B00282000000,5629 WOODMONT ST PITTSBURGH PA 15217,14TH WARD - PITTSBURGH,40.442279941880123,-79.926690409223255,140300
0086B00236000000,5701 WOODMONT ST PITTSBURGH PA 15217,14TH WARD - PITTSBURGH,40.442327605827245,-79.925394097870736,140300
0086A00262000000,5514 WOODMONT ST PITTSBURGH PA 15217,14TH WARD - PITTSBURGH,40.441701099593544,-79.929792201713738,140100
0086A00224000000,5559 BELLEROCK PL PITTSBURGH PA 15217,14TH WARD - PITTSBURGH,40.442865123988433,-79.928730916920784,140100
0086A00210000000,1266 BELLEROCK ST PITTSBURGH PA 15217,14TH WARD - PITTSBURGH,40.442720557240037,-79.929694689962616,140100
0085S00271000000,6404 WILKINS AVE PITTSBURGH PA 15217,14TH WARD - PITTSBURGH,40.443874653504622,-79.918776036904035,140300
0085S00172000000,6537 WILKINS AVE PITTSBURGH PA 15217,14TH WARD - PITTSBURGH,40.444893077860797,-79.916332463804409,140400
0085R00290000000,1327 SHADY AVE PITTSBURGH PA 15217,14TH WARD - PITTSBURGH,40.444984588768783,-79.920449982154651,140400
0085R00118000000,5800 WILKINS AVE PITTSBURGH PA 15217,14TH WARD - PITTSBURGH,40.443699411337818,-79.923564434543238,140300
0085R00048000000,5857 SOLWAY ST PITTSBURGH PA 15217,14TH WARD - PITTSBURGH,40.443155475266266,-79.921519236952392,140300
0085P00072000000,151 FORT PITT BLVD PITTSBURGH PA 15222,14TH WARD - PITTSBURGH,40.443290660665035,-79.926120126525120,140300
0085N00156000000,5450 FAIR OAKS ST PITTSBURGH PA 15217,14TH WARD - PITTSBURGH,40.444556567730316,-79.931590584622413,140100
0085M00222000000,1275 BEECHWOOD BLVD PITTSBURGH PA 15206,14TH WARD - PITTSBURGH,40.446559023401377,-79.918020697102463,140400
0085L00023000000,1238 DENNISTON ST PITTSBURGH PA 15217,14TH WARD - PITTSBURGH,40.446754414008403,-79.920342522009818,140400
0085K00022000000,5600 FAIR OAKS ST PITTSBURGH PA 15217,14TH WARD - PITTSBURGH,40.445534140876845,-79.928178602185994,140200
0085K00016000000,5614 FAIR OAKS ST PITTSBURGH PA 15217,14TH WARD - PITTSBURGH,40.445747339706145,-79.927735016913829,140200
0085J00154000000,5463 KIPLING RD PITTSBURGH PA 15217,14TH WARD - PITTSBURGH,40.445916213873041,-79.929481100347587,140200
0085J00103000000,1130 WIGHTMAN ST PITTSBURGH PA 15217,14TH WARD - PITTSBURGH,40.446742614569132,-79.929441300524772,140200
0085H00054000000,128 BEECHWOOD LN PITTSBURGH PA 15206,14TH WARD - PITTSBURGH,40.448321878069862,-79.917928837217588,140400
0085D00179000000,1085 BEECHWOOD BLVD PITTSBURGH PA 15206,14TH WARD - PITTSBURGH,40.450708742399435,-79.916842934364070,140400
0085D00160000000,1054 BEECHWOOD BLVD PITTSBURGH PA 15206,14TH WARD - PITTSBURGH,40.451191933470568,-79.917641178976666,140400
0085C00429000000,126 N WOODLAND RD PITTSBURGH PA 15232,14TH WARD - PITTSBURGH,40.451738368274064,-79.923643999615294,140200
0085C00170000000,1001 HIGHMONT RD PITTSBURGH PA 15232,14TH WARD - PITTSBURGH,40.451738653290477,-79.921878148800474,140200
0085B00093000000,5747 5TH AVE PITTSBURGH PA 15232,7TH WARD - PITTSBURGH,40.450553535939008,-79.928190091990345,070600
0085A00318000000,5721 KENTUCKY AVE PITTSBURGH PA 15232,7TH WARD - PITTSBURGH,40.450935110296506,-79.929432416310334,070600
0085A00185000000,5707 WALNUT ST PITTSBURGH PA 15232,7TH WARD - PITTSBURGH,40.452379187443711,-79.930501463834574,070500
0085A00057000000,718 IVY ST PITTSBURGH PA 15232,7TH WARD - PITTSBURGH,40.452260890628217,-79.932784848540649,070300
0085A00001000000,912 IVY ST PITTSBURGH PA 15232,7TH WARD - PITTSBURGH,40.450332079612537,-79.931733943248517,070300
0084R00217000000,6211 HOWE ST PITTSBURGH PA 15206,7TH WARD - PITTSBURGH,40.454389807043327,-79.922736215477713,070600
0084P00096000100,500 S HIGHLAND AVE PITTSBURGH PA 15206,7TH WARD - PITTSBURGH,40.452999217967509,-79.924923117903504,070600
0084N00250000000,646 MARYLAND AVE PITTSBURGH PA 15232,7TH WARD - PITTSBURGH,40.454861610479654,-79.930385850513517,070500
0084N00116000000,628 SUMMERLEA ST PITTSBURGH PA 15232,7TH WARD - PITTSBURGH,40.454200444266924,-79.931494315291701,070500
0084M00424000000,6408 MELISSA ST PITTSBURGH PA 15206,7TH WARD - PITTSBURGH,40.456146116402721,-79.918714111893678,070800
0084M00420000000,6420 MELISSA ST PITTSBURGH PA 15206,7TH WARD - PITTSBURGH,40.456077735200878,-79.918616424670162,070800
0084M00414000000,6428 MELISSA ST PITTSBURGH PA 15206,7TH WARD - PITTSBURGH,40.455940685539730,-79.918417521584615,070800
0084M00410000000,6448 MELISSA ST PITTSBURGH PA 15206,7TH WARD - PITTSBURGH,40.455832596405003,-79.918261490252291,070800
0084M00406000000,6452 MELISSA ST PITTSBURGH PA 15206,7TH WARD - PITTSBURGH,40.455756436448631,-79.918151733859588,070800
0084M00363000000,6459 MELISSA ST PITTSBURGH PA 15206,7TH WARD - PITTSBURGH,40.455813093579266,-79.917802218631977,070800
0084M00009000000,6350 WALNUT ST PITTSBURGH PA 15206,7TH WARD - PITTSBURGH,40.455363566492380,-79.920017886306255,070800
0084L00075000000,6358 AURELIA ST PITTSBURGH PA 15206,7TH WARD - PITTSBURGH,40.457301234517161,-79.920353474411968,070800
0084K00173000000,318 LEHIGH AVE PITTSBURGH PA 15232,7TH WARD - PITTSBURGH,40.456567422905671,-79.926676809665523,070500
0084K00027000000,5917 ALDER ST PITTSBURGH PA 15232,7TH WARD - PITTSBURGH,40.456878892828264,-79.928434226341679,070500
0084J00064000000,636 MARYLAND AVE PITTSBURGH PA 15232,7TH WARD - PITTSBURGH,40.455233908327713,-79.930587615801556,070500
0084H000650F2000,100 DENNISTON ST PITTSBURGH PA 15206,7TH WARD - PITTSBURGH,40.458296921793824,-79.919326140121086,070800
0084G00252000000,151 FORT PITT BLVD PITTSBURGH PA 15222,7TH WARD - PITTSBURGH,40.457618588398475,-79.921415503446966,070800
0084G00112000A00,242 EMERSON ST PITTSBURGH PA 15206,7TH WARD - PITTSBURGH,40.458193260517191,-79.923711117008494,070800
0084E00026000000,328 AMBER ST PITTSBURGH PA 15206,8TH WARD - PITTSBURGH,40.459612253191658,-79.932169089735197,111500
0084A00212000000,241 AMBER ST PITTSBURGH PA 15206,8TH WARD - PITTSBURGH,40.460552179860649,-79.930977250894102,111500
0083H00263000000,819 COLLINS AVE PITTSBURGH PA 15206,11TH WARD - PITTSBURGH,40.469565663236125,-79.917747571823469,110600
0083G00232000000,735 N HIGHLAND AVE PITTSBURGH PA 15206,11TH WARD - PITTSBURGH,40.469058212602597,-79.921720191276933,111300
0083G00159000000,710 N BEATTY ST PITTSBURGH PA 15206,11TH WARD - PITTSBURGH,40.468676385425567,-79.922532652912196,111300
0083G00139000000,5904 STANTON AVE PITTSBURGH PA 15206,11TH WARD - PITTSBURGH,40.469673714183145,-79.921818315030109,111300
0083G00090000000,722 N EUCLID AVE PITTSBURGH PA 15206,11TH WARD - PITTSBURGH,40.469413542471713,-79.923311085962510,111300
0083F00277000000,5712 HAYS ST PITTSBURGH PA 15206,11TH WARD - PITTSBURGH,40.468652614127564,-79.924646450914892,111300
0083E00069000000,5522 BLACK ST PITTSBURGH PA 15206,11TH WARD - PITTSBURGH,40.469102591310183,-79.929276173120869,111400
0083E00068000000,5524 BLACK ST PITTSBURGH PA 15206,11TH WARD - PITTSBURGH,40.469080618297660,-79.929210298067744,111400
0082R00203000000,5815 WELLESLEY AVE PITTSBURGH PA 15206,11TH WARD - PITTSBURGH,40.473343309788156,-79.921695407939822,110200
0082R00086000000,907 N SAINT CLAIR ST PITTSBURGH PA 15206,11TH WARD - PITTSBURGH,40.472463721450168,-79.923263530924672,110200
0082R00058000000,930 MELLON ST PITTSBURGH PA 15206,11TH WARD - PITTSBURGH,40.473057303510068,-79.923410460099248,110200
0082R00035000000,903 MELLON ST PITTSBURGH PA 15206,11TH WARD - PITTSBURGH,40.472600197422594,-79.924285691838037,110200
0082P00198000000,804 HETHS AVE PITTSBURGH PA 15206,11TH WARD - PITTSBURGH,40.472683222629904,-79.928018770579101,110200
0082M00282000000,1215 FARRAGUT ST PITTSBURGH PA 15206,11TH WARD - PITTSBURGH,40.474972079970939,-79.917370852860998,110600
0082L00315000000,5700 ELGIN ST PITTSBURGH PA 15206,11TH WARD - PITTSBURGH,40.476941604650868,-79.921163354804435,110200
0082L00127000000,1040 PORTLAND ST PITTSBURGH PA 15206,11TH WARD - PITTSBURGH,40.474882187227337,-79.923604213522168,110200
0082H00230000000,1437 GREYSTONE DR PITTSBURGH PA 15206,11TH WARD - PITTSBURGH,40.478067796580248,-79.917759903106003,110200
0082G00159000000,5710 CALLOWHILL ST PITTSBURGH PA 15206,11TH WARD - PITTSBURGH,40.477552978043654,-79.920448466176325,110200
0082G00125000B00,1411 MELLON ST PITTSBURGH PA 15206,11TH WARD - PITTSBURGH,40.478333721367591,-79.920783118342726,110200
0082E00268000000,1158 JANCEY ST PITTSBURGH PA 15206,10TH WARD - PITTSBURGH,40.478868473744932,-79.929622198281479,101400
0081F00093000000,930 WOODBINE ST PITTSBURGH PA 15201,10TH WARD - PITTSBURGH,40.478463689144547,-79.943487295382212,100500
0081E00153000000,5323 MCCANDLESS AVE PITTSBURGH PA 15201,10TH WARD - PITTSBURGH,40.478695743366075,-79.946427160882791,101800
0080P00159000000,170 46TH ST PITTSBURGH PA 15201,9TH WARD - PITTSBURGH,40.473350857419412,-79.959947708754754,090100
0080K00236000000,4818 HATFIELD ST PITTSBURGH PA 15201,9TH WARD - PITTSBURGH,40.476873897681720,-79.958267756084211,090100
0080K00157000000,152 47TH ST PITTSBURGH PA 15201,9TH WARD - PITTSBURGH,40.474934608507354,-79.959656371701030,090100
0080K00147000000,4640 HATFIELD ST PITTSBURGH PA 15201,9TH WARD - PITTSBURGH,40.475310831131857,-79.960185153743026,090100
0080K00080000000,4707 HATFIELD ST PITTSBURGH PA 15201,9TH WARD - PITTSBURGH,40.475836368719911,-79.960173554172513,090100
0080H00260000000,5208 POE WAY PITTSBURGH PA 15201,10TH WARD - PITTSBURGH,40.478191852133008,-79.950596610566208,101100
0080H00050000000,5158 KEYSTONE ST PITTSBURGH PA 15201,10TH WARD - PITTSBURGH,40.478757077268540,-79.952993467123719,101100
0080H00023000000,5151 KEYSTONE ST PITTSBURGH PA 15201,10TH WARD - PITTSBURGH,40.478647496187754,-79.953473486365681,101100
0080G00250000000,5114 CARNEGIE ST PITTSBURGH PA 15201,10TH WARD - PITTSBURGH,40.478123034697823,-79.954350307748442,101100
0080G00249000000,5114 CARNEGIE ST PITTSBURGH PA 15201,10TH WARD - PITTSBURGH,40.478074277627421,-79.954383528275628,101100
0080G00089000000,4925 BUTLER ST PITTSBURGH PA 15201,9TH WARD - PITTSBURGH,40.477799383765060,-79.956564364832303,090100
0080G00061000000,190-192 49TH ST PITTSBURGH PA 15201,9TH WARD - PITTSBURGH,40.477266576673372,-79.957537442919801,090100
0080D00309040300,5267 HOLMES ST PITTSBURGH PA 15201,10TH WARD - PITTSBURGH,40.480336445991107,-79.951201117059910,101100
0080D00287000000,5216 KEYSTONE ST PITTSBURGH PA 15201,10TH WARD - PITTSBURGH,40.479719496159177,-79.952238744242706,101100
0079P00144000000,2471 PITTVIEW AVE PITTSBURGH PA 15209,RESERVE,40.473459590172759,-79.975088938187952,428100
0079D00165000000,108 VERMILLION DR PITTSBURGH PA 15209,SHALER,40.481542314071568,-79.968975205214093,427200
0079D00124000000,220 EVERGREEN AVE PITTSBURGH PA 15209,SHALER,40.480708311883468,-79.969922552435051,427200
0079A00065000000,824 STANTON AVE PITTSBURGH PA 15209,MILLVALE,40.480771578496039,-79.979696725363667,427000
0077P00280000000,2813 PERRYSVILLE AVE PITTSBURGH PA 15214,26TH WARD - PITTSBURGH,40.473901723759177,-80.010838164539351,261500
0077P00215000000,2815 VETERAN ST PITTSBURGH PA 15214,26TH WARD - PITTSBURGH,40.473948995227083,-80.009657047102650,261500
0077N00326000000,125 HAWKINS AVE PITTSBURGH PA 15214,26TH WARD - PITTSBURGH,40.472210318521476,-80.014460304457657,261500
0077N00233000000,2715 LELAND ST PITTSBURGH PA 15214,26TH WARD - PITTSBURGH,40.472934546617765,-80.013158168901526,261500
0077B00213000000,96 WATSON BLVD PITTSBURGH PA 15214,26TH WARD - PITTSBURGH,40.480127822467615,-80.009314502487456,260700
0076N00203000000,3102 FREDERICK ST PITTSBURGH PA 15212,27TH WARD - PITTSBURGH,40.473531720110323,-80.030633015471551,271600
0075M00297000000,1302 MALDEN ST PITTSBURGH PA 15212,27TH WARD - PITTSBURGH,40.474721803093438,-80.033001766435774,271600
0075M00170000000,1423 BECKHAM ST PITTSBURGH PA 15212,27TH WARD - PITTSBURGH,40.476263106147393,-80.035348820265682,270300
0074S00069000000,120 SHINGISS ST MC KEES ROCKS PA 15136,MCKEES ROCKS,40.473207672513787,-80.053320778017294,464400
0074R00299000D00,12 HELEN ST MC KEES ROCKS PA 15136,MCKEES ROCKS,40.472967336654399,-80.056931645938050,464400
0074R00219000000,316 ELLA ST MC KEES ROCKS PA 15136,MCKEES ROCKS,40.474374424627307,-80.055729692204608,464400
0074N00113000000,710 CAMP ST MC KEES ROCKS PA 15136,MCKEES ROCKS,40.472288060219995,-80.063182074980290,464400
0074L00066000000,412 GARDNER ST MC KEES ROCKS PA 15136,MCKEES ROCKS,40.475793469934572,-80.054540735440014,464400
0073S00161000000,62 MCKINNIE AVE MC KEES ROCKS PA 15136,STOWE,40.473748862276040,-80.068358272322669,462600
0073S00107000000,61 FRAZIER AVE MC KEES ROCKS PA 15136,STOWE,40.474015154062329,-80.068425924542751,462600
0073P00257000000,834 RUSSELLWOOD AVE MC KEES ROCKS PA 15136,STOWE,40.472919192330899,-80.076353921576626,462600
0073N00008000000,1118 BROADWAY AVE MC KEES ROCKS PA 15136,STOWE,40.474562111470256,-80.078755564848421,462600
0073M00213000000,27 SHAW AVE MC KEES ROCKS PA 15136,STOWE,40.475468693717986,-80.067815298722607,462600
0073E00153000000,613 MAIN ST MC KEES ROCKS PA 15136,STOWE,40.478487426270171,-80.080049627050201,462600
0072R00190000000,1249 CHURCH AVE MC KEES ROCKS PA 15136,MCKEES ROCKS,40.464045511505120,-80.073238830655072,463900
0072M00085000000,916 1ST ST MC KEES ROCKS PA 15136,MCKEES ROCKS,40.466650929006697,-80.066387212902100,463900
0072M00043000000,1007 2ND ST MC KEES ROCKS PA 15136,MCKEES ROCKS,40.466835787327078,-80.067191633349665,463900
0072M00041000000,1005 2ND ST MC KEES ROCKS PA 15136,MCKEES ROCKS,40.466877367853321,-80.067082000015105,463900
0072L00169000B00,1206 HOLMES ST MC KEES ROCKS PA 15136,MCKEES ROCKS,40.467314635719305,-80.073710491080107,463900
0072L00143000000,1220 GRANT WAY MC KEES ROCKS PA 15136,MCKEES ROCKS,40.467392554743526,-80.072706964676684,463900
0072H00122000000,310 BROADWAY AVE MC KEES ROCKS PA 15136,MCKEES ROCKS,40.468204984803926,-80.067370146559696,463900
0072E00164000000,153 COLLEGE AVE MC KEES ROCKS PA 15136,MCKEES ROCKS,40.468493322833645,-80.080533728794421,463900
0072D00108000000,517 WOODWARD AVE MC KEES ROCKS PA 15136,STOWE,40.470443339767435,-80.069736705312508,462600
0072C00300000000,538 BROADWAY AVE MC KEES ROCKS PA 15136,STOWE,40.470677129414554,-80.070648209835852,462600
0072B00108000000,15 ROSAMOND ST MC KEES ROCKS PA 15136,STOWE,40.470309240540324,-80.075429185087032,462600
0072A00393000000,29 RUDOLPH ST MC KEES ROCKS PA 15136,STOWE,40.472189551496975,-80.079345210716255,462600
0071S00123000000,1430 SWANTEK ST PITTSBURGH PA 15204,20TH WARD - PITTSBURGH,40.452865101242580,-80.069635803718171,202200
0070S00250000000,2 CRAIG WAY PITTSBURGH PA 15205,INGRAM,40.444655248647088,-80.066546275100407,464300
